nombre,direccion,codigo_postal,puntuacion_media,numero_reviews,tipo_negocio,latitud,longitud,categoria_negocio
Hotel NH Collection Madrid Colón,"Calle del Marqués de Zurgena, 4, Madrid",28001,4.6,1495.0,"lodging, point_of_interest, establishment",40.42607599999999,-3.689069999999999,Alojamiento
Rosewood Villa Magna,"Paseo de la Castellana, 22, Madrid",28001,4.5,2651.0,"gym, lodging, spa, health, restaurant, food, point_of_interest, establishment",40.4299515,-3.688152499999999,Restauración
Hotel Único Madrid,"Calle de Claudio Coello, 67, Madrid",28001,4.7,527.0,"lodging, restaurant, food, point_of_interest, establishment",40.428537,-3.6863313,Restauración
Hotel Fénix Gran Meliá - The Leading Hotels of the World,"Calle de Hermosilla, 2, Madrid",28001,4.6,1673.0,"lodging, point_of_interest, establishment",40.426552,-3.68921,Alojamiento
H10 Puerta de Alcalá,"Calle Alcalá, 66, Madrid",28001,4.4,2831.0,"lodging, point_of_interest, establishment",40.422182,-3.681154,Alojamiento
Hotel Vincci Soma,"Calle de Goya, 79, Madrid",28001,4.3,2841.0,"lodging, point_of_interest, establishment",40.4250624,-3.6781604,Alojamiento
ICON Embassy,"Calle de Serrano, 46, Madrid",28001,4.4,857.0,"lodging, restaurant, food, point_of_interest, establishment",40.4270199,-3.6873236,Restauración
ICON Wipton,"Calle de Jorge Juan, 17, Madrid",28001,4.5,646.0,"lodging, restaurant, food, point_of_interest, establishment",40.4240272,-3.6854174,Restauración
VP Jardín de Recoletos,"Calle de Gil de Santivañes, 6, Madrid",28001,4.5,671.0,"parking, lodging, restaurant, food, point_of_interest, establishment",40.4223075,-3.689168100000001,Restauración
Hotel Catalonia Goya,"Calle de Goya, 49, Madrid",28001,4.3,1167.0,"lodging, point_of_interest, establishment",40.4252539,-3.6821996,Alojamiento
Horno de Juan,"Calle de Lope de Rueda, 4, Madrid",28001,4.2,876.0,"restaurant, food, point_of_interest, establishment",40.4236435,-3.6774816,Restauración
Taberna de La Daniela Goya,"Calle del General Pardiñas, 21, BAJO, Madrid",28001,4.1,2259.0,"bar, restaurant, food, point_of_interest, establishment",40.42632020000001,-3.6786533,Restauración
Apart-Hotel Serrano Recoletos,"Calle de Villanueva, 2, Madrid",28001,3.6,867.0,"lodging, point_of_interest, establishment",40.4227751,-3.6900327,Alojamiento
AC Hotel Recoletos,"Calle de Recoletos, 18, Madrid",28001,4.5,586.0,"lodging, point_of_interest, establishment",40.42144649999999,-3.6895566,Alojamiento
Petit Palace President Castellana,"Calle del Marqués de Villamagna, 4, Madrid",28001,4.0,1516.0,"lodging, point_of_interest, establishment",40.42923569999999,-3.688395499999999,Alojamiento
Hospes Puerta de Alcalá,"Plaza de la Independencia, 3, Madrid",28001,4.4,1030.0,"lodging, spa, restaurant, food, point_of_interest, establishment",40.4206199,-3.689281300000001,Restauración
"Hotel Palacio Del Retiro, Autograph Collection","Calle de Alfonso XII, 14, Madrid",28001,4.5,485.0,"lodging, point_of_interest, establishment",40.4177785,-3.689227,Alojamiento
Petit Palace Santa Barbara,"Plaza de Santa Bárbara, 10, Madrid",28001,4.5,1702.0,"lodging, restaurant, food, point_of_interest, establishment",40.4264258,-3.696379599999999,Restauración
Casa Almagro by The Pavilions Hotels & Resorts,"Calle de Amador de los Ríos, 3, Madrid",28001,4.6,412.0,"lodging, point_of_interest, establishment",40.4270812,-3.691410200000001,Alojamiento
Apartamentos Goya 75,"Calle del General Pardiñas, 13, Madrid",28001,3.3,528.0,"lodging, point_of_interest, establishment",40.4253546,-3.6787347,Alojamiento
Boutike Cibeles,"Calle Alcalá, 57, Madrid",28001,4.5,227.0,"lodging, point_of_interest, establishment",40.4198688,-3.6914576,Alojamiento
Relais & Chateaux Hotel Orfila,"Calle de Orfila, 6, Madrid",28001,4.6,615.0,"lodging, point_of_interest, establishment",40.4272003,-3.6932807,Alojamiento
Hotel Sardinero Madrid,"Plaza de Alonso Martínez, 3, Madrid",28001,4.6,863.0,"lodging, point_of_interest, establishment",40.4282198,-3.6960866,Alojamiento
Hotel NH Madrid Lagasca,"Calle de Lagasca, 64, Madrid",28001,4.2,910.0,"lodging, point_of_interest, establishment",40.427538,-3.685109000000001,Alojamiento
Bar Tomate,"Calle de Fernando el Santo, 26, Madrid",28001,4.2,3338.0,"bar, restaurant, point_of_interest, food, establishment",40.4279549,-3.6905347,Restauración
Hotel Serrano,"Calle del Marqués de Villamejor, 8, Madrid",28001,4.2,484.0,"lodging, point_of_interest, establishment",40.4310378,-3.6874355,Alojamiento
Hotel Gran Versalles,"Calle de Covarrubias, 4, Madrid",28001,4.2,2335.0,"lodging, point_of_interest, establishment",40.4284208,-3.6970266,Alojamiento
El Escondite de Villanueva l Restaurante Barrio Salamanca,"Calle de Villanueva, 26, Madrid",28001,4.1,2524.0,"liquor_store, bar, restaurant, point_of_interest, store, food, establishment",40.42236579999999,-3.6859795,Restauración
Hotel One Shot Recoletos,"Calle de Salustiano Olózaga, 4, Madrid",28001,4.0,653.0,"lodging, point_of_interest, establishment",40.4209045,-3.6913681,Alojamiento
Meliá Madrid Serrano,"Calle de Claudio Coello, 139, Madrid",28001,4.4,2744.0,"lodging, point_of_interest, establishment",40.435977,-3.685441,Alojamiento
Museo de Cera,"Plaza de Colón, 1, Madrid",28001,4.1,9924.0,"tourist_attraction, museum, point_of_interest, establishment",40.42507459999999,-3.691512899999999,Turismo / Atracción
Petit Palace Savoy Alfonso XII,"Calle de Alfonso XII, 18, Madrid",28001,4.5,1414.0,"restaurant, lodging, point_of_interest, food, establishment",40.4171891,-3.689137399999999,Restauración
Biblioteca Nacional de España,"Paseo de Recoletos, 20-22, Madrid",28001,4.5,1607.0,"tourist_attraction, library, point_of_interest, establishment",40.4237879,-3.690245199999999,Turismo / Atracción
ABC Serrano Commercial Center,"Calle de Serrano, 61, Madrid",28001,3.9,9837.0,"shopping_mall, shoe_store, clothing_store, point_of_interest, supermarket, grocery_or_supermarket, store, food, establishment",40.4321406,-3.6870326,Restauración
El Corte Inglés Goya,"Calle de Goya, Sótano 1, Madrid",28001,4.2,25749.0,"shopping_mall, point_of_interest, establishment",40.424155,-3.674943899999999,Comercio / Servicios
Hotel Avani Alonso Martínez Madrid - Formerly NH Alonso Martínez,"Calle de Santa Engracia, 5, Madrid",28001,4.3,1367.0,"lodging, point_of_interest, establishment",40.42869899999999,-3.696126,Alojamiento
Soho de Jorge Juan Bar Restaurante,"Calle de Jorge Juan, 50, Madrid",28001,4.2,828.0,"bar, restaurant, point_of_interest, food, establishment",40.4234702,-3.6808474,Restauración
Pasteleria El Gato Persa,"Calle de Bárbara de Braganza, 10, Madrid",28001,3.8,659.0,"bakery, point_of_interest, store, food, establishment",40.423378,-3.692666,Restauración
Gran Café Gijón,"Paseo de Recoletos, 21, Madrid",28001,3.5,7050.0,"cafe, store, food, point_of_interest, establishment",40.422304,-3.692301,Restauración
Lateral Velázquez,"Calle Velázquez, 57, Madrid",28001,4.2,5249.0,"restaurant, food, point_of_interest, establishment",40.4285694,-3.6840918,Restauración
La Mordida,"Calle de Belén, 13, Madrid",28001,4.3,2570.0,"restaurant, food, point_of_interest, establishment",40.4244135,-3.6959487,Restauración
Fundación Carolina,"Plaza del Marqués de Salamanca, 8, 4°, Madrid",28001,4.4,18.0,"point_of_interest, establishment",40.4305239,-3.679170399999999,Otros / No categorizado
Alfredo's Barbacoa,"Calle de Lagasca, 5, Madrid",28001,4.1,4199.0,"restaurant, food, point_of_interest, establishment",40.4213657,-3.685896,Restauración
Restaurante La Giralda - Tu Rincón de Andalucía en Madrid -,"Calle de Claudio Coello, 24, Madrid",28001,4.3,1617.0,"restaurant, food, point_of_interest, establishment",40.42326529999999,-3.686597799999999,Restauración
TreZe Restaurante,"Calle del General Pardiñas, 34, Madrid",28001,4.5,1736.0,"restaurant, bar, food, point_of_interest, establishment",40.426798,-3.6783377,Restauración
Only YOU Boutique Hotel,"Calle del Barquillo, 21, Madrid",28001,4.6,2720.0,"lodging, point_of_interest, establishment",40.42225579999999,-3.6957491,Alojamiento
New York Burger,"Calle de Recoletos, 4, Madrid",28001,4.5,8003.0,"restaurant, food, point_of_interest, establishment",40.422131,-3.6908463,Restauración
La Llave de Oro,"Calle Velázquez, 6, Madrid",28001,4.5,1157.0,"restaurant, food, point_of_interest, establishment",40.421899,-3.684179300000001,Restauración
Fundación Juan March,"Calle de Castelló, 77, Madrid",28001,4.6,4087.0,"museum, point_of_interest, establishment",40.4311763,-3.6812725,Otros / No categorizado
Nuevo Teatro Alcalá,"Calle de Jorge Juan, 62, Madrid",28001,4.4,14596.0,"point_of_interest, establishment",40.42339690000001,-3.678246199999999,Otros / No categorizado
Le Petit Prince,"Calle de Fernán González, 7, Madrid",28001,4.2,1350.0,"restaurant, food, point_of_interest, establishment",40.4243502,-3.6740567,Restauración
Intimissimi,"Calle de Ayala, 13, Madrid",28001,4.0,91.0,"clothing_store, store, point_of_interest, establishment",40.4279967,-3.6866103,Comercio / Servicios
Gobu,"Calle del General Pardiñas, 8, Madrid",28001,4.6,1725.0,"restaurant, food, point_of_interest, establishment",40.424136,-3.678569000000001,Restauración
Caribbean Sport Shop,"Calle de Ayala, 110, Madrid",28001,4.9,863.0,"store, point_of_interest, establishment",40.427121,-3.6744412,Comercio / Servicios
Embassy of France,"Calle de Salustiano Olózaga, 9, Madrid",28001,2.8,160.0,"embassy, point_of_interest, establishment",40.4207291,-3.6898476,Administración / Localidad
Intimissimi,"Calle de Goya, 73, LOCAL 5, Madrid",28001,3.8,152.0,"clothing_store, store, point_of_interest, establishment",40.4250786,-3.6787717,Comercio / Servicios
Brunch by Café Oliver,"Calle de Caracas, 10, Madrid",28001,3.8,121.0,"restaurant, food, point_of_interest, establishment",40.4305827,-3.694306799999999,Restauración
Restaurante O'Caldiño,"Calle de Lagasca, 74, Madrid",28001,4.2,2273.0,"restaurant, food, point_of_interest, establishment",40.42856439999999,-3.6848595,Restauración
Sercotel Togumar,"Calle de Canillas, 59, Madrid",28002,4.2,1552.0,"lodging, point_of_interest, establishment",40.4438931,-3.6727188,Alojamiento
Hotel ILUNION Suites Madrid,"Calle de López de Hoyos, 143, Madrid",28002,4.3,3295.0,"lodging, point_of_interest, establishment",40.4478205,-3.6690155,Alojamiento
Abba Madrid Hotel,"Avenida de América, 32, Madrid",28002,4.4,2613.0,"lodging, point_of_interest, establishment",40.438834,-3.672723,Alojamiento
AC Hotel Avenida de America,"Calle de Cartagena, 83-85, Madrid",28002,4.3,1895.0,"lodging, point_of_interest, establishment",40.4380379,-3.6726858,Alojamiento
Hotel uVe Marcenado,"Calle de Marcenado, 9, Madrid",28002,4.6,576.0,"lodging, point_of_interest, establishment",40.445646,-3.6729009,Alojamiento
STYLISH CITY APARTMENTS MADRID,"37, Calle de Luis Cabrera, 5A, Madrid",28002,2.8,176.0,"lodging, point_of_interest, establishment",40.443226,-3.6745053,Alojamiento
Hotel Puerta America Madrid,"Avenida de América, 41, Madrid",28002,4.3,6191.0,"lodging, restaurant, food, point_of_interest, establishment",40.4406864,-3.6701104,Restauración
Restaurante Rías Bajas,"Calle Alustante, 11, Calle de Clara del Rey, 33, Posterior, Madrid",28002,4.5,2469.0,"restaurant, food, point_of_interest, establishment",40.4425801,-3.6711912,Restauración
Quirónsalud San José Hospital,"Calle de Cartagena, 111, Madrid",28002,3.0,1749.0,"hospital, health, point_of_interest, establishment",40.4403502,-3.6743248,Salud
Restaurante - Cervecería Fass Concha Espina,"Calle de Rodríguez Marín, 84, Madrid",28002,4.0,2528.0,"restaurant, food, point_of_interest, establishment",40.45146539999999,-3.678578,Restauración
Tiffany's The Club,"Avenida del Doctor Arce, 10, Madrid",28002,3.0,1782.0,"night_club, point_of_interest, establishment",40.4455806,-3.6833062,Otros / No categorizado
Órale Un Pedacito,"Calle de Pradillo, 30, Madrid",28002,4.5,2790.0,"bar, restaurant, food, point_of_interest, establishment",40.4487482,-3.672656000000001,Restauración
Enforex Camps,"Calle de Gustavo Fernández Balbuena, 11, 2º planta, Madrid",28002,4.5,202.0,"point_of_interest, establishment",40.4496534,-3.6678951,Otros / No categorizado
Taste of America,"Calle de Serrano, 149, Madrid",28002,4.0,230.0,"convenience_store, supermarket, grocery_or_supermarket, food, point_of_interest, store, establishment",40.446557,-3.684855100000001,Restauración
BBVA,"Calle del Príncipe de Vergara, 203, Madrid",28002,1.7,23.0,"bank, atm, accounting, finance, point_of_interest, establishment",40.4491957,-3.6781503,Comercio / Servicios
A&H Suites Internacional Madrid,"Calle de Luis Cabrera, 37, Madrid",28002,2.9,11.0,"lodging, point_of_interest, establishment",40.4431619,-3.6744491,Alojamiento
Holiday Gym,"Calle de López de Hoyos, 71, Madrid",28002,3.3,413.0,"gym, health, point_of_interest, establishment",40.4433506,-3.6756132,Comercio / Servicios
Santuario de Santa Gema,"Calle de Leizarán, 24, Madrid",28002,4.7,2894.0,"tourist_attraction, church, place_of_worship, point_of_interest, establishment",40.4477912,-3.6815307,Religión / Culto
Magnetron,"Calle del Cardenal Silíceo, 22, Madrid",28002,4.5,84.0,"electronics_store, home_goods_store, point_of_interest, store, establishment",40.44429909999999,-3.6704733,Comercio / Servicios
Mutualidad,"Calle de Francisco Silvela, 106, Madrid",28002,2.9,513.0,"insurance_agency, point_of_interest, establishment",40.4389851,-3.6785267,Finanzas y Seguros
Uría Menéndez,"Calle del Príncipe de Vergara, 187, Madrid",28002,4.3,148.0,"lawyer, point_of_interest, establishment",40.4474059,-3.6783268,Otros / No categorizado
Clínica Gorja,"Calle de Pradillo, 13, Madrid",28002,4.5,8.0,"dentist, health, point_of_interest, establishment",40.448725,-3.6749302,Salud
Acalaca Selección,"Calle de Luis de Salazar, 6, Madrid",28002,4.1,122.0,"point_of_interest, establishment",40.4472475,-3.6670302,Otros / No categorizado
RESTAURANTE LOBBO,"Calle Gabriel Lobo, 11, Madrid",28002,4.1,1513.0,"restaurant, food, point_of_interest, establishment",40.44301550000001,-3.680793300000001,Restauración
BBVA,"Calle de López de Hoyos, 138, Madrid",28002,2.6,127.0,"bank, atm, accounting, finance, point_of_interest, establishment",40.44489629999999,-3.6725838,Comercio / Servicios
Gyata - Concesionario KM 0 multimarca y Servicio Premium Ford,"Calle de Sánchez Pacheco, 48, Madrid",28002,4.4,680.0,"car_dealer, point_of_interest, store, establishment",40.447113,-3.674107,Comercio / Servicios
Nautalia viajes,"Calle de López de Hoyos, 92, Madrid",28002,4.1,27.0,"travel_agency, lodging, point_of_interest, establishment",40.44286959999999,-3.675622699999999,Alojamiento
Chindasvinto,"Calle de Clara del Rey, 59, Madrid",28002,4.4,338.0,"clothing_store, point_of_interest, store, establishment",40.44548760000001,-3.6683917,Comercio / Servicios
[P] Parking Clara del Rey,"Calle de Clara del Rey, 32, 34, Madrid",28002,4.2,177.0,"parking, point_of_interest, establishment",40.4433569,-3.668608900000001,Naturaleza / Recreación
Delta Dent Dental Clinic Madrid,"Avenida de Ramón y Cajal, 5, Madrid",28002,4.7,110.0,"health, point_of_interest, establishment",40.4519149,-3.6769502,Salud
PCBox,"Calle de Cartagena, 115, Madrid",28002,4.3,344.0,"electronics_store, point_of_interest, store, establishment",40.4410035,-3.6748368,Comercio / Servicios
BBVA,"Calle del Príncipe de Vergara, 267, Madrid",28002,2.8,86.0,"bank, atm, accounting, finance, point_of_interest, establishment",40.4545003,-3.6774842,Comercio / Servicios
Lidl,"Calle de Suero de Quiñones, 1, Madrid",28002,4.0,2089.0,"supermarket, grocery_or_supermarket, food, point_of_interest, store, establishment",40.444099,-3.675233999999999,Restauración
ICEA - Investigación Cooperativa entre Entidades Aseguradoras y Fondos de Pensiones,"Calle de López de Hoyos, 35, 5 planta, Madrid",28002,4.1,54.0,"insurance_agency, point_of_interest, establishment",40.441173,-3.6797154,Finanzas y Seguros
Cash Converters,"Calle del Corazón de María, 70, Madrid",28002,3.5,488.0,"electronics_store, jewelry_store, finance, point_of_interest, store, establishment",40.4466891,-3.6661662,Comercio / Servicios
CIS University,"Calle Velázquez, 140, Madrid",28002,4.7,50.0,"university, point_of_interest, establishment",40.4407975,-3.6824028,Educación
Los Gemelos,"Calle de López de Hoyos, 123, Madrid",28002,4.2,302.0,"point_of_interest, establishment",40.44625449999999,-3.6710913,Otros / No categorizado
Restaurante Casa Benigna,"Calle de Benigno Soto, 9, Madrid",28002,4.7,2076.0,"restaurant, point_of_interest, food, establishment",40.44811299999999,-3.6742458,Restauración
Parish of Our Lady of Guadalupe,"Calle de Puerto Rico, 1, Madrid",28002,4.6,475.0,"church, place_of_worship, point_of_interest, establishment",40.4521342,-3.6750505,Religión / Culto
"Micro Aire, S.L.","Calle de Víctor de la Serna, 5, Madrid",28002,4.4,438.0,"point_of_interest, establishment",40.45267769999999,-3.6734304,Otros / No categorizado
Centro Medico-Quirurgico de Enfermedades Digestivas,"Calle de Oquendo, 23, Madrid",28002,3.0,277.0,"doctor, point_of_interest, health, establishment",40.440675,-3.681910700000001,Comercio / Servicios
Aránzazu,"Calle de Francisco Silvela, 96, Madrid",28002,4.2,1417.0,"bar, restaurant, point_of_interest, food, establishment",40.4386111,-3.6783333,Restauración
Clínica Lladó,"Calle del Príncipe de Vergara, 128, Escalera izquierda, Entreplanta, Puerta Derecha, Madrid",28002,4.8,364.0,"doctor, beauty_salon, hair_care, spa, point_of_interest, health, establishment",40.4427409,-3.6781111,Comercio / Servicios
Auto Maser,"Calle del Cardenal Silíceo, 35, BAJO, Madrid",28002,3.7,135.0,"car_dealer, point_of_interest, store, establishment",40.44269999999999,-3.66922,Comercio / Servicios
Los Torreznos BAR,"Calle de López de Hoyos, 149, Madrid",28002,4.2,3996.0,"restaurant, bar, point_of_interest, food, establishment",40.44799109999999,-3.6687392,Restauración
La Ancha,"Calle del Príncipe de Vergara, 204, Madrid",28002,4.5,2464.0,"restaurant, point_of_interest, food, establishment",40.4493583,-3.6774667,Restauración
Avenida de América Transport Hub,"Avenida de América, 9, Madrid",28002,4.0,9458.0,"shopping_mall, point_of_interest, establishment",40.43837,-3.6760107,Comercio / Servicios
Francisco Ibáñez Public Library,"Calle de Mantuano, 51, Primera Planta, Madrid",28002,3.8,145.0,"library, point_of_interest, establishment",40.4483731,-3.676461800000001,Otros / No categorizado
SIL,"Calle de Clara del Rey, 25, Madrid",28002,4.1,132.0,"electronics_store, point_of_interest, store, establishment",40.4414135,-3.672046800000001,Comercio / Servicios
Body Factory by VivaGym Santa Rita (Clara del Rey),"Calle de Santa Rita, 10, Madrid",28002,4.3,147.0,"gym, point_of_interest, health, establishment",40.445217,-3.6677462,Comercio / Servicios
Solo de Uva,"Calle del Príncipe de Vergara, 210, Madrid",28002,4.2,18.0,"liquor_store, bar, restaurant, point_of_interest, store, food, establishment",40.4518609,-3.676916199999999,Restauración
LIBRERIA EL BUSCÓN,"Calle del Cardenal Silíceo, 8, Madrid",28002,4.7,271.0,"book_store, point_of_interest, store, establishment",40.44525129999999,-3.6714898,Comercio / Servicios
Creyconfe Uniformes laborales en Madrid,"Calle de Serrano, 205, Madrid",28002,4.4,33.0,"clothing_store, point_of_interest, store, establishment",40.45327759999999,-3.6802134,Comercio / Servicios
Foster's Hollywood,"Calle de López de Hoyos, 161, 163, Madrid",28002,3.3,194.0,"restaurant, point_of_interest, food, establishment",40.4489781,-3.6668782,Restauración
Cambridge House,"Calle de López de Hoyos, 95, Madrid",28002,4.9,128.0,"point_of_interest, establishment",40.4451306,-3.6728543,Otros / No categorizado
AEG ZANUSSI ELECTROLUX Repuestos y Reparaciones,"Calle Cardenal Siliceo, 7 PROSPERIDAD, CHAMARTIN MADRID PARQUE AVENIDAS BARRIO SALAMANCA GUINDALERA, Calle del Cardenal Silíceo, 7, Madrid",28002,4.2,124.0,"point_of_interest, establishment",40.4451214,-3.6711926,Otros / No categorizado
Hotel NH Madrid Zurbano,"Calle de Zurbano, 79-81, Madrid",28003,4.2,2898.0,"lodging, point_of_interest, establishment",40.439051,-3.692878,Alojamiento
InterContinental Madrid by IHG,"Paseo de la Castellana, 49, Madrid",28003,4.6,4264.0,"lodging, point_of_interest, establishment",40.43632769999999,-3.6902269,Alojamiento
Hyatt Regency Hesperia Madrid,"Paseo de la Castellana, 57, Madrid",28003,4.5,1727.0,"lodging, point_of_interest, establishment",40.4388581,-3.6915108,Alojamiento
Miyama,"Paseo de la Castellana, 45, Madrid",28003,4.6,1203.0,"restaurant, food, point_of_interest, establishment",40.435713,-3.689798799999998,Restauración
NYX Madrid,"Calle del Aviador Zorita, 34, Madrid",28003,4.2,3318.0,"lodging, point_of_interest, establishment",40.45044779999999,-3.6979453,Alojamiento
Hotel NH Collection Madrid Abascal,"Calle de José Abascal, 47, Madrid",28003,4.6,2545.0,"lodging, point_of_interest, establishment",40.438314,-3.695182,Alojamiento
Hotel NH Madrid Chamberí,"Calle de Bretón de los Herreros, 29, Madrid",28003,4.3,814.0,"lodging, point_of_interest, establishment",40.439586,-3.69827,Alojamiento
Sagaretxe,"Calle de Eloy Gonzalo, 26, Madrid",28003,4.0,3841.0,"bar, restaurant, food, point_of_interest, establishment",40.434241,-3.701002,Restauración
Restaurante italiano Nonsolocaffé,"Calle de Ríos Rosas, 52, Madrid",28003,4.3,1706.0,"bar, restaurant, food, point_of_interest, establishment",40.44157149999999,-3.6958103,Restauración
Las Mañanitas,"Calle de Bravo Murillo, 54, Madrid",28003,4.3,1852.0,"restaurant, food, point_of_interest, establishment",40.442998,-3.7037667,Restauración
Hotel Miguel Angel,"Calle de Miguel Ángel, 31, Madrid",28003,4.1,2004.0,"lodging, point_of_interest, establishment",40.4376228,-3.6914117,Alojamiento
Hotel Suites Barrio De Salamanca,"Calle del General Oráa, 17, Madrid",28003,4.4,386.0,"lodging, point_of_interest, establishment",40.4363629,-3.6857229,Alojamiento
Meliá Madrid Serrano,"Calle de Claudio Coello, 139, Madrid",28003,4.4,2744.0,"lodging, point_of_interest, establishment",40.435977,-3.685441,Alojamiento
Taste Me - Restaurante Chamberí con terraza - Carne a la brasa,"Calle de Santa Engracia, 53, Madrid",28003,4.2,991.0,"bar, restaurant, food, point_of_interest, establishment",40.43337409999999,-3.6983286,Restauración
Barceló Emperatriz,"Calle de López de Hoyos, 4, Madrid",28003,4.6,1193.0,"lodging, point_of_interest, establishment",40.43636859999999,-3.688504699999999,Alojamiento
El Pedrusco de Aldealcorvo,"Calle de Juan de Austria, 27, Madrid",28003,4.6,791.0,"restaurant, food, point_of_interest, establishment",40.4339751,-3.700078,Restauración
El Corte Inglés,"Calle de Raimundo Fernández Villaverde, 65, Madrid",28003,4.3,39692.0,"shopping_mall, point_of_interest, establishment",40.4466622,-3.694285799999999,Comercio / Servicios
Ministry of Employment and Social Security,"Paseo de la Castellana, 63, Madrid",28003,3.0,43.0,"local_government_office, point_of_interest, establishment",40.4428141,-3.694543000000001,Administración / Localidad
Gimnasio Metropolitan,"Calle de José Abascal, 46, Madrid",28003,4.2,653.0,"gym, beauty_salon, point_of_interest, health, establishment",40.4380081,-3.693802,Comercio / Servicios
Barullo Company,"Calle de Santa Engracia, 131, Madrid",28003,4.0,547.0,"clothing_store, home_goods_store, point_of_interest, store, establishment",40.4422355,-3.7021677,Comercio / Servicios
Hospital Universitario Vithas Madrid La Milagrosa,"Calle de Modesto Lafuente, 14, Madrid",28003,3.9,2266.0,"hospital, doctor, point_of_interest, health, establishment",40.4370011,-3.6956373,Comercio / Servicios
Las Tortillas de Gabino,"Calle de Rafael Calvo, 20, Madrid",28003,4.5,2465.0,"restaurant, point_of_interest, food, establishment",40.4338707,-3.6938244,Restauración
Bar Tula,"Calle de Fernández de la Hoz, 53, Madrid",28003,4.1,515.0,"bar, point_of_interest, establishment",40.43881,-3.6945983,Restauración
Guetaria Asador 2.zero,"Calle del Aviador Zorita, 8, Madrid",28003,4.4,1782.0,"restaurant, point_of_interest, food, establishment",40.4475364,-3.6983613,Restauración
El Quinto Vino,"Calle de Hernani, 48, Madrid",28003,4.1,1408.0,"restaurant, liquor_store, bar, point_of_interest, store, food, establishment",40.44805699999999,-3.699002,Restauración
Instalaciones Deportivas Canal de Isabel II,"Avenida de Filipinas, 54, Madrid",28003,3.9,2027.0,"park, point_of_interest, establishment",40.441189,-3.705117,Naturaleza / Recreación
Restaurante Ferreiro,"Calle del Aviador Zorita, 32, Madrid",28003,4.3,1280.0,"restaurant, point_of_interest, food, establishment",40.4502106,-3.698173299999999,Restauración
Ecocentro,"Calle Esquilache, 4, Madrid",28003,4.2,2367.0,"restaurant, point_of_interest, food, establishment",40.442964,-3.7048922,Restauración
Fortuny Home Club,"Calle de Fortuny, 34, Madrid",28003,3.9,4760.0,"restaurant, point_of_interest, food, establishment",40.43445529999999,-3.689987899999999,Restauración
Teatros del Canal,"Calle de Cea Bermúdez, 1, Madrid",28003,4.5,7261.0,"point_of_interest, establishment",40.43827900000001,-3.7051836,Otros / No categorizado
Museo Nacional de Ciencias Naturales,"Calle de José Gutiérrez Abascal, 2, Madrid",28003,4.5,12873.0,"museum, point_of_interest, establishment",40.44123810000001,-3.6901921,Otros / No categorizado
Government Delegation in Madrid,"Calle de Miguel Ángel, 25, Madrid",28003,2.6,181.0,"local_government_office, point_of_interest, establishment",40.4368191,-3.6915518,Administración / Localidad
Fundación Residencia de Estudiantes,"Calle del Pinar, 21-23, Madrid",28003,4.5,1276.0,"point_of_interest, establishment",40.44067619999999,-3.687949699999999,Otros / No categorizado
Madrid Musical Malaga8,"Calle de Málaga, 8, Madrid",28003,4.6,1696.0,"point_of_interest, store, establishment",40.4386949,-3.6933406,Comercio / Servicios
GINECO DIAGNOSTIC,"Calle de José Abascal, 36, Bajo, Madrid",28003,3.2,204.0,"point_of_interest, health, establishment",40.4381041,-3.695546700000001,Salud
BBVA,"Calle de Bravo Murillo, 18, Madrid",28003,2.7,66.0,"bank, atm, accounting, finance, point_of_interest, establishment",40.435623,-3.7040121,Comercio / Servicios
Cambridge University Press,"1º, Calle de José Abascal, 56, Madrid",28003,2.9,14.0,"point_of_interest, establishment",40.43778810000001,-3.6921908,Otros / No categorizado
Public Library José Luis Sampedro,"Calle Felipe el Hermoso, 4, Madrid",28003,3.9,378.0,"library, point_of_interest, establishment",40.4354075,-3.6996299,Otros / No categorizado
Consorcio Regional de Transportes de Madrid,"Plaza del Descubridor Diego de Ordás, 3, Madrid",28003,3.8,1230.0,"point_of_interest, establishment",40.44083989999999,-3.6999694,Otros / No categorizado
Zalacaín Restaurant,"Calle de Álvarez de Baena, 4, Madrid",28003,4.6,956.0,"restaurant, point_of_interest, food, establishment",40.4384851,-3.6887062,Restauración
Hola Caracola,"Calle de Fernández de la Hoz, 40, Madrid",28003,4.7,436.0,"point_of_interest, store, establishment",40.43479139999999,-3.6946581,Comercio / Servicios
Suéltate El Pelo,"Calle de María de Guzmán, 5, Madrid",28003,4.2,1754.0,"bar, point_of_interest, establishment",40.4444152,-3.7032003,Restauración
Bosco,"Calle de Fernández de la Hoz, 78, Madrid",28003,4.6,617.0,"restaurant, bar, point_of_interest, food, establishment",40.4401595,-3.694274199999999,Restauración
Makinostra Harley Davidson Madrid,"Calle del General Álvarez de Castro, 26, Madrid",28003,4.3,578.0,"point_of_interest, store, establishment",40.436302,-3.702243299999999,Comercio / Servicios
CAS Training,"Calle de la Basílica, 19, Planta 5, Madrid",28003,4.3,179.0,"point_of_interest, establishment",40.4490603,-3.6965976,Otros / No categorizado
.,"Calle de Espronceda, 33, Madrid",28003,1.7,3.0,"hospital, doctor, point_of_interest, health, establishment",40.4405868,-3.694902099999999,Comercio / Servicios
La Gran Tasca,"Calle de Santa Engracia, 161, Madrid",28003,4.4,1620.0,"restaurant, point_of_interest, food, establishment",40.4447699,-3.7032291,Restauración
Rafael del Pino Foundation,"Calle de Rafael Calvo, 39, Madrid",28003,4.6,212.0,"point_of_interest, establishment",40.4343151,-3.689215099999999,Otros / No categorizado
Cervecería José Luis (Serrano),"Calle de Serrano, 89, Madrid",28003,4.2,1072.0,"bar, restaurant, point_of_interest, food, establishment",40.4369999,-3.6865438,Restauración
Taberna Gaztelupe,"Calle del Aviador Zorita, 32, Madrid",28003,4.4,1700.0,"restaurant, point_of_interest, food, establishment",40.4501454,-3.6981721,Restauración
Maruzzella,"Calle de Raimundo Fernández Villaverde, 28, Madrid",28003,4.4,2505.0,"restaurant, point_of_interest, food, establishment",40.4461776,-3.699724099999999,Restauración
VIPS,"Calle de Orense, 16, Madrid",28003,3.9,6710.0,"restaurant, meal_takeaway, point_of_interest, food, establishment",40.4494961,-3.695054099999999,Restauración
Novovisión - Clínica Oftalmológica en Madrid,"Paseo de la Castellana, 54, Madrid",28003,4.7,529.0,"doctor, point_of_interest, health, establishment",40.435877,-3.6886,Comercio / Servicios
BBVA,"Calle de Santa Engracia, 179, Madrid",28003,2.4,95.0,"bank, atm, accounting, finance, point_of_interest, establishment",40.44599209999999,-3.7037241,Comercio / Servicios
Soy,"Calle de Viriato, 58, Madrid",28003,4.8,348.0,"restaurant, point_of_interest, food, establishment",40.4356141,-3.697028099999999,Restauración
Embassy of the United States of America,"Calle de Serrano, 75, Madrid",28003,3.7,748.0,"embassy, point_of_interest, establishment",40.43482159999999,-3.687551099999999,Administración / Localidad
Hotel Infantas by Mij,"Calle de las Infantas, 29, Madrid",28004,4.2,836.0,"lodging, point_of_interest, establishment",40.4201069,-3.6970542,Alojamiento
Petit Palace Triball,"Calle Gonzalo Jiménez de Quesada, 2, Madrid",28004,4.5,1730.0,"lodging, point_of_interest, establishment",40.42056549999999,-3.7029078,Alojamiento
INNSiDE by Meliá Madrid Gran Vía,"Calle de Mesonero Romanos, 13, Madrid",28004,4.3,1814.0,"lodging, point_of_interest, establishment",40.420612,-3.703958,Alojamiento
Hotel Regina Madrid,"Calle Alcalá, 19, Madrid",28004,4.5,2723.0,"lodging, point_of_interest, establishment",40.4179133,-3.699877499999999,Alojamiento
Vincci Capitol Hotel,"Gran Vía, 41, Madrid",28004,4.4,2637.0,"lodging, point_of_interest, establishment",40.420444,-3.706584,Alojamiento
Hotel Quatro Puerta Del Sol,"Calle de Sevilla, 4, Madrid",28004,4.0,1126.0,"lodging, point_of_interest, establishment",40.41706469999999,-3.6999545,Alojamiento
Hotel Europa,"Calle del Carmen, 4, Madrid",28004,4.4,2067.0,"lodging, point_of_interest, establishment",40.4175032,-3.7033915,Alojamiento
Hotel NH Collection Madrid Colón,"Calle del Marqués de Zurgena, 4, Madrid",28004,4.6,1495.0,"lodging, point_of_interest, establishment",40.42607599999999,-3.689069999999999,Alojamiento
Hotel Urban,"Carrera de San Jerónimo, 34, Madrid",28004,4.5,1920.0,"lodging, point_of_interest, establishment",40.4164449,-3.6986026,Alojamiento
Hotel Victoria 4,"Calle de la Victoria, 4, Madrid",28004,4.1,1106.0,"lodging, point_of_interest, establishment",40.416379,-3.701742399999999,Alojamiento
Eurostars Madrid Gran Vía,"Calle de Leganitos, 13, Madrid",28004,4.1,1382.0,"lodging, point_of_interest, establishment",40.4212153,-3.7099122,Alojamiento
Hostal Puerta del Sol,"Puerta del Sol, 14, Madrid",28004,4.0,276.0,"lodging, point_of_interest, establishment",40.4171537,-3.7025296,Alojamiento
Hotel Atlántico,"Gran Vía, 38, Madrid",28004,4.7,1338.0,"lodging, point_of_interest, establishment",40.42040529999999,-3.7045863,Alojamiento
Hotel Santo Domingo,"Calle de San Bernardo, 1, Madrid",28004,3.9,5770.0,"lodging, point_of_interest, establishment",40.4206587,-3.7085482,Alojamiento
Room Mate Oscar Hotel,"Plaza de Pedro Zerolo, 12, Madrid",28004,4.5,3320.0,"lodging, point_of_interest, establishment",40.4206371,-3.6990059,Alojamiento
Petit Palace Tres Cruces,"Calle de las Tres Cruces, 6, Madrid",28004,4.4,1386.0,"lodging, point_of_interest, establishment",40.41933119999999,-3.7027806,Alojamiento
Petit Palace Chueca,"Calle de Hortaleza, 3, Madrid",28004,4.4,1470.0,"cafe, restaurant, lodging, point_of_interest, store, food, establishment",40.420354,-3.7011024,Restauración
Hotel Sterling Gran Vía,"Calle de San Bernardo, 29, 31, Madrid",28004,3.9,1416.0,"lodging, point_of_interest, establishment",40.423015,-3.707661,Alojamiento
Hotel Catalonia Gran Vía Madrid,"Gran Vía, 7-9, Madrid",28004,4.3,2765.0,"lodging, point_of_interest, establishment",40.4194421,-3.6988293,Alojamiento
Hotel Madrid II Castillas,"Calle de la Abada, 7, Madrid",28004,4.3,1326.0,"lodging, point_of_interest, establishment",40.4192202,-3.704376799999999,Alojamiento
ibis Madrid Centro,"Calle de Manuela Malasaña, 6, Madrid",28004,4.4,1258.0,"lodging, point_of_interest, establishment",40.4287373,-3.703080499999999,Alojamiento
Hotel Fénix Gran Meliá - The Leading Hotels of the World,"Calle de Hermosilla, 2, Madrid",28004,4.6,1673.0,"lodging, point_of_interest, establishment",40.426552,-3.68921,Alojamiento
Petit Palace Plaza del Carmen,"Plaza del Carmen, 4, Madrid",28004,4.4,1008.0,"lodging, point_of_interest, establishment",40.41903279999999,-3.7029893,Alojamiento
Petit Palace Santa Barbara,"Plaza de Santa Bárbara, 10, Madrid",28004,4.5,1702.0,"lodging, restaurant, food, point_of_interest, establishment",40.4264258,-3.696379599999999,Restauración
Eurostars Casa de la Lírica,"Calle de la Aduana, 19, Madrid",28004,4.3,1403.0,"lodging, point_of_interest, establishment",40.41848239999999,-3.7012592,Alojamiento
Petit Palace Preciados,"Calle de Galdo, 2, Madrid",28004,4.2,1344.0,"lodging, point_of_interest, establishment",40.4181053,-3.7043429,Alojamiento
VP Jardín de Recoletos,"Calle de Gil de Santivañes, 6, Madrid",28004,4.5,671.0,"parking, lodging, restaurant, food, point_of_interest, establishment",40.4223075,-3.689168100000001,Restauración
Apart-Hotel Serrano Recoletos,"Calle de Villanueva, 2, Madrid",28004,3.6,867.0,"lodging, point_of_interest, establishment",40.4227751,-3.6900327,Alojamiento
Hotel Regente Madrid,"Calle de Mesonero Romanos, 9, Madrid",28004,4.2,2837.0,"lodging, point_of_interest, establishment",40.41970959999999,-3.7043006,Alojamiento
Hotel Liabeny,"Calle de la Salud, 3, Madrid",28004,4.5,3002.0,"lodging, point_of_interest, establishment",40.4186836,-3.7040003,Alojamiento
Intelier Palacio San Martín,"Plaza de San Martín, 5, Madrid",28004,4.5,1278.0,"cafe, lodging, restaurant, food, point_of_interest, store, establishment",40.4186427,-3.7067589,Restauración
ME Madrid Reina Victoria,"Plaza de Santa Ana, 14, Madrid",28004,4.4,2520.0,"lodging, point_of_interest, establishment",40.414601,-3.701377000000001,Alojamiento
Petit Palace Plaza España,"Calle de San Bernardo, 3, Madrid",28004,4.2,1381.0,"lodging, point_of_interest, establishment",40.42088999999999,-3.7083531,Alojamiento
AC Hotel Recoletos,"Calle de Recoletos, 18, Madrid",28004,4.5,586.0,"lodging, point_of_interest, establishment",40.42144649999999,-3.6895566,Alojamiento
"Mandarin Oriental Ritz, Madrid","Plaza de la Lealtad, 5, Madrid",28004,4.7,3969.0,"spa, lodging, food, point_of_interest, establishment",40.4157577,-3.692606699999999,Restauración
Hotel Mayorazgo,"Calle de la Flor Baja, 3, Madrid",28004,4.4,4729.0,"lodging, point_of_interest, establishment",40.4221209,-3.7095924,Alojamiento
7 Islas Hotel,"Calle de Valverde, 14, Madrid",28004,4.5,1337.0,"lodging, point_of_interest, establishment",40.4212482,-3.7018303,Alojamiento
Hotel Gran Versalles,"Calle de Covarrubias, 4, Madrid",28004,4.2,2335.0,"lodging, point_of_interest, establishment",40.4284208,-3.6970266,Alojamiento
Hotel Sardinero Madrid,"Plaza de Alonso Martínez, 3, Madrid",28004,4.6,863.0,"lodging, point_of_interest, establishment",40.4282198,-3.6960866,Alojamiento
Hotel Vincci Centrum,"Calle de Cedaceros, 4, Madrid",28004,4.3,1322.0,"lodging, point_of_interest, establishment",40.4175772,-3.698596899999999,Alojamiento
Hotel Anaco,"Calle de las Tres Cruces, 3, Madrid",28004,3.2,912.0,"lodging, point_of_interest, establishment",40.4193472,-3.7030945,Alojamiento
H10 Villa de la Reina Boutique Hotel,"Gran Vía, 22, E, Madrid",28004,4.5,1428.0,"lodging, point_of_interest, establishment",40.4200443,-3.7002792,Alojamiento
Boutike Cibeles,"Calle Alcalá, 57, Madrid",28004,4.5,227.0,"lodging, point_of_interest, establishment",40.4198688,-3.6914576,Alojamiento
Casa Almagro by The Pavilions Hotels & Resorts,"Calle de Amador de los Ríos, 3, Madrid",28004,4.6,412.0,"lodging, point_of_interest, establishment",40.4270812,-3.691410200000001,Alojamiento
Hotel Avenida Gran Via,"Calle de Mesonero Romanos, 14, Madrid",28004,3.7,824.0,"lodging, point_of_interest, establishment",40.41970120000001,-3.7040755,Alojamiento
Hotel Madrisol,"Calle de Núñez de Arce, 1, Madrid",28004,3.5,816.0,"lodging, point_of_interest, establishment",40.415849,-3.7011718,Alojamiento
Casino de Madrid,"Calle Alcalá, 15, Madrid",28004,4.6,2115.0,"point_of_interest, establishment",40.4178115,-3.7002572,Otros / No categorizado
Hospes Puerta de Alcalá,"Plaza de la Independencia, 3, Madrid",28004,4.4,1030.0,"lodging, spa, restaurant, food, point_of_interest, establishment",40.4206199,-3.689281300000001,Restauración
Hotel Moderno,"Calle del Arenal, 2, Madrid",28004,4.4,2165.0,"lodging, point_of_interest, establishment",40.4170417,-3.7048905,Alojamiento
Hotel Ateneo Puerta del Sol,"Calle de la Montera, 22, Madrid",28004,4.2,600.0,"lodging, point_of_interest, establishment",40.4182378,-3.7024151,Alojamiento
Hotel One Shot Luchana 22,"Calle de Luchana, 22, Madrid",28004,4.0,808.0,"lodging, point_of_interest, establishment",40.43028249999999,-3.700095799999999,Alojamiento
Petit Palace Cliper Gran Vía,"Calle de Chinchilla, 6, Madrid",28004,4.1,1473.0,"lodging, point_of_interest, establishment",40.4196585,-3.7035852,Alojamiento
Hotel Vincci Via 66,"Gran Vía, 66, Madrid",28004,4.4,2354.0,"lodging, point_of_interest, establishment",40.42242909999999,-3.708891500000001,Alojamiento
Palacio de los Duques Gran Meliá - The Leading Hotels of the World,"Cuesta de Santo Domingo, 5, Madrid",28004,4.7,2321.0,"lodging, point_of_interest, establishment",40.419756,-3.709671,Alojamiento
Relais & Chateaux Hotel Orfila,"Calle de Orfila, 6, Madrid",28004,4.6,615.0,"lodging, point_of_interest, establishment",40.4272003,-3.6932807,Alojamiento
Hostal Bianco,"Calle de Echegaray, 5 -1, Derecha, Madrid",28004,4.3,238.0,"lodging, point_of_interest, establishment",40.4160129,-3.6995733,Alojamiento
Petit Palace Arenal,"Calle del Arenal, 16, Madrid",28004,4.4,1681.0,"lodging, point_of_interest, establishment",40.41734899999999,-3.7064961,Alojamiento
Petit Palace Alcalá,"Calle de la Virgen de los Peligros, 2, Madrid",28004,4.3,1290.0,"lodging, point_of_interest, establishment",40.4183201,-3.6993136,Alojamiento
Hotel Puerta de Toledo,"Glorieta de la Puerta de Toledo, 4, Madrid",28005,4.3,3841.0,"lodging, point_of_interest, establishment",40.4063206,-3.7122787,Alojamiento
Hotel NH Madrid Ribera del Manzanares,"Paseo de la Virgen del Puerto, 57, Madrid",28005,4.4,3700.0,"lodging, point_of_interest, establishment",40.40634,-3.721825999999999,Alojamiento
Hotel Praga,"Calle de Antonio López, 65, Madrid",28005,4.1,7585.0,"lodging, point_of_interest, establishment",40.394073,-3.707562,Alojamiento
Petit Palace Posada del Peine,"Calle de Postas, 17, Madrid",28005,4.4,1181.0,"lodging, point_of_interest, establishment",40.41571,-3.7060284,Alojamiento
ME Madrid Reina Victoria,"Plaza de Santa Ana, 14, Madrid",28005,4.4,2520.0,"lodging, point_of_interest, establishment",40.414601,-3.701377000000001,Alojamiento
AC Hotel Carlton Madrid,"Paseo de las Delicias, 26, Madrid",28005,4.3,1613.0,"lodging, point_of_interest, establishment",40.4051228,-3.6937021,Alojamiento
Hotel Victoria 4,"Calle de la Victoria, 4, Madrid",28005,4.1,1106.0,"lodging, point_of_interest, establishment",40.416379,-3.701742399999999,Alojamiento
Hotel Europa,"Calle del Carmen, 4, Madrid",28005,4.4,2067.0,"lodging, point_of_interest, establishment",40.4175032,-3.7033915,Alojamiento
Mediodía Hotel,"Plaza del Emperador Carlos V, 8, Madrid",28005,4.2,3426.0,"lodging, point_of_interest, establishment",40.4085732,-3.692866899999999,Alojamiento
Hotel Quatro Puerta Del Sol,"Calle de Sevilla, 4, Madrid",28005,4.0,1126.0,"lodging, point_of_interest, establishment",40.41706469999999,-3.6999545,Alojamiento
Hotel Urban,"Carrera de San Jerónimo, 34, Madrid",28005,4.5,1920.0,"lodging, point_of_interest, establishment",40.4164449,-3.6986026,Alojamiento
Hotel Regina Madrid,"Calle Alcalá, 19, Madrid",28005,4.5,2723.0,"lodging, point_of_interest, establishment",40.4179133,-3.699877499999999,Alojamiento
AC Hotel Atocha,"Calle de las Delicias, 42, Madrid",28005,4.3,1884.0,"lodging, point_of_interest, establishment",40.4038003,-3.6900165,Alojamiento
Vincci Capitol Hotel,"Gran Vía, 41, Madrid",28005,4.4,2637.0,"lodging, point_of_interest, establishment",40.420444,-3.706584,Alojamiento
Eurostars Madrid Gran Vía,"Calle de Leganitos, 13, Madrid",28005,4.1,1382.0,"lodging, point_of_interest, establishment",40.4212153,-3.7099122,Alojamiento
Hotel NH Madrid Atocha,"Paseo de la Infanta Isabel, 9, Madrid",28005,4.2,1566.0,"lodging, point_of_interest, establishment",40.40769,-3.689457,Alojamiento
INNSiDE by Meliá Madrid Gran Vía,"Calle de Mesonero Romanos, 13, Madrid",28005,4.3,1814.0,"lodging, point_of_interest, establishment",40.420612,-3.703958,Alojamiento
Petit Palace Triball,"Calle Gonzalo Jiménez de Quesada, 2, Madrid",28005,4.5,1730.0,"lodging, point_of_interest, establishment",40.42056549999999,-3.7029078,Alojamiento
Hostal Puerta del Sol,"Puerta del Sol, 14, Madrid",28005,4.0,276.0,"lodging, point_of_interest, establishment",40.4171537,-3.7025296,Alojamiento
Corral de la Morería,"Calle de la Moreria, 17, Madrid",28005,4.4,3789.0,"restaurant, food, point_of_interest, establishment",40.4126689,-3.7142336,Restauración
Posada Del Dragón,"Calle de la Cava Baja, 14, Madrid",28005,4.3,1264.0,"lodging, clothing_store, store, point_of_interest, establishment",40.4131012,-3.7086039,Alojamiento
"Mandarin Oriental Ritz, Madrid","Plaza de la Lealtad, 5, Madrid",28005,4.7,3969.0,"lodging, spa, food, point_of_interest, establishment",40.4157577,-3.692606699999999,Restauración
Hotel Porcel Ganivet,"Calle de Toledo, 111, 113, Madrid",28005,4.3,2621.0,"lodging, point_of_interest, establishment",40.40821989999999,-3.710767599999999,Alojamiento
Taberna del Alabardero Madrid - Restaurante Palacio Real,"Calle de Felipe V, 6, Madrid",28005,4.3,1712.0,"bar, restaurant, food, point_of_interest, establishment",40.4186021,-3.710921599999999,Restauración
Rafaelhoteles Pirámides,"Paseo de las Acacias, 40, Madrid",28005,4.2,1337.0,"lodging, point_of_interest, establishment",40.4024822,-3.711509,Alojamiento
Casa de Asturias,"Calle de Argumosa, 4, Madrid",28005,3.8,2504.0,"restaurant, food, point_of_interest, establishment",40.4081497,-3.699811,Restauración
ibis Styles Madrid Prado,"Calle del Prado, 11, Madrid",28005,4.4,1250.0,"lodging, point_of_interest, establishment",40.4148772,-3.698999,Alojamiento
Hotel Santo Domingo,"Calle de San Bernardo, 1, Madrid",28005,3.9,5770.0,"lodging, point_of_interest, establishment",40.4206587,-3.7085482,Alojamiento
HRC Hotel,"C/ Ángel 18, Calle de Calatrava, 32, Madrid",28005,3.7,716.0,"lodging, point_of_interest, establishment",40.4098475,-3.7130869,Alojamiento
CATS Chill Out Hostel,"Calle de la Cabeza, 24, Madrid",28005,4.0,581.0,"lodging, point_of_interest, establishment",40.4118958,-3.702101099999999,Alojamiento
Posada del León de Oro,"Calle de la Cava Baja, 12, Madrid",28005,4.2,1456.0,"restaurant, lodging, food, point_of_interest, establishment",40.4131927,-3.708539400000001,Restauración
B&B Hotel Madrid Centro Plaza Mayor,"Calle de Atocha, 2, Madrid",28005,4.4,1672.0,"lodging, point_of_interest, establishment",40.41461929999999,-3.705511,Alojamiento
Hotel Catalonia Puerta Del Sol,"Calle de Atocha, 23, Madrid",28005,4.7,1246.0,"lodging, point_of_interest, establishment",40.414026,-3.702864300000001,Alojamiento
Petit Palace Preciados,"Calle de Galdo, 2, Madrid",28005,4.2,1344.0,"lodging, point_of_interest, establishment",40.4181053,-3.7043429,Alojamiento
Palacio de los Duques Gran Meliá - The Leading Hotels of the World,"Cuesta de Santo Domingo, 5, Madrid",28005,4.7,2321.0,"lodging, point_of_interest, establishment",40.419756,-3.709671,Alojamiento
Intelier Palacio San Martín,"Plaza de San Martín, 5, Madrid",28005,4.5,1278.0,"cafe, lodging, store, restaurant, food, point_of_interest, establishment",40.4186427,-3.7067589,Restauración
Petit Palace Arenal,"Calle del Arenal, 16, Madrid",28005,4.4,1681.0,"lodging, point_of_interest, establishment",40.41734899999999,-3.7064961,Alojamiento
Hotel Madrisol,"Calle de Núñez de Arce, 1, Madrid",28005,3.5,816.0,"lodging, point_of_interest, establishment",40.415849,-3.7011718,Alojamiento
Petit Palace Tres Cruces,"Calle de las Tres Cruces, 6, Madrid",28005,4.4,1386.0,"lodging, point_of_interest, establishment",40.41933119999999,-3.7027806,Alojamiento
Hotel Madrid II Castillas,"Calle de la Abada, 7, Madrid",28005,4.3,1326.0,"lodging, point_of_interest, establishment",40.4192202,-3.704376799999999,Alojamiento
Hotel Mayerling Madrid - WEB OFICIAL,"Calle del Conde de Romanones, 6, Madrid",28005,4.3,574.0,"lodging, point_of_interest, establishment",40.4134985,-3.7049219,Alojamiento
Hotel Eurostars Plaza Mayor,"Calle del Doctor Cortezo, 10, Madrid",28005,4.2,1648.0,"lodging, point_of_interest, establishment",40.41307919999999,-3.703986,Alojamiento
Hotel Atlántico,"Gran Vía, 38, Madrid",28005,4.7,1338.0,"lodging, point_of_interest, establishment",40.42040529999999,-3.7045863,Alojamiento
Hotel Cortezo,"Calle del Doctor Cortezo, 3, Madrid",28005,4.1,1834.0,"lodging, point_of_interest, establishment",40.4136722,-3.7035722,Alojamiento
Hotel Moderno,"Calle del Arenal, 2, Madrid",28005,4.4,2165.0,"lodging, point_of_interest, establishment",40.4170417,-3.7048905,Alojamiento
"Room Mate Mario, Madrid","Calle de Campomanes, 4, Madrid",28005,4.5,1061.0,"lodging, point_of_interest, establishment",40.4188302,-3.7093121,Alojamiento
Petit Palace Plaza del Carmen,"Plaza del Carmen, 4, Madrid",28005,4.4,1008.0,"lodging, point_of_interest, establishment",40.41903279999999,-3.7029893,Alojamiento
URBANSEA Atocha 113,"Calle de Atocha, 113, Madrid",28005,4.0,805.0,"lodging, point_of_interest, establishment",40.4103724,-3.6946021,Alojamiento
Hotel Meninas,"Calle de Campomanes, 7, Madrid",28005,4.3,574.0,"lodging, point_of_interest, establishment",40.41911199999999,-3.70932,Alojamiento
Eurostars Casa de la Lírica,"Calle de la Aduana, 19, Madrid",28005,4.3,1403.0,"lodging, point_of_interest, establishment",40.41848239999999,-3.7012592,Alojamiento
HOTEL MIAU,"Calle del Príncipe, 26, Madrid",28005,4.3,292.0,"lodging, point_of_interest, establishment",40.4143397,-3.7001914,Alojamiento
Suite Prado,"Calle de Manuel Fernández y González, 10, Madrid",28005,4.3,318.0,"lodging, point_of_interest, establishment",40.4150778,-3.699087899999999,Alojamiento
Hotel Francisco I,"Calle del Arenal, 15, Madrid",28005,4.5,1731.0,"lodging, point_of_interest, establishment",40.4174456,-3.7075983,Alojamiento
La Esquina del Real,"Calle de la Amnistía, 4, Madrid",28005,4.6,972.0,"restaurant, food, point_of_interest, establishment",40.4173635,-3.710353399999998,Restauración
Hotel Vincci Soho,"Calle del Prado, 18, Madrid",28005,4.4,3239.0,"lodging, point_of_interest, establishment",40.4148722,-3.698403799999999,Alojamiento
Cats Hostel Madrid Sol,"Calle de los Cañizares, 6, Madrid",28005,4.2,1738.0,"bar, lodging, point_of_interest, establishment",40.41289560000001,-3.701667100000001,Restauración
Hotel Liabeny,"Calle de la Salud, 3, Madrid",28005,4.5,3002.0,"lodging, point_of_interest, establishment",40.4186836,-3.7040003,Alojamiento
Hotel Príncipe 11,"Calle del Príncipe, 11, Madrid",28005,3.5,63.0,"lodging, point_of_interest, establishment",40.4157669,-3.7002701,Alojamiento
Abba Madrid Hotel,"Avenida de América, 32, Madrid",28006,4.4,2613.0,"lodging, point_of_interest, establishment",40.438834,-3.672723,Alojamiento
InterContinental Madrid by IHG,"Paseo de la Castellana, 49, Madrid",28006,4.6,4264.0,"lodging, point_of_interest, establishment",40.43632769999999,-3.6902269,Alojamiento
Miyama,"Paseo de la Castellana, 45, Madrid",28006,4.6,1203.0,"restaurant, food, point_of_interest, establishment",40.435713,-3.689798799999998,Restauración
Hotel NH Madrid Zurbano,"Calle de Zurbano, 79-81, Madrid",28006,4.2,2898.0,"lodging, point_of_interest, establishment",40.439051,-3.692878,Alojamiento
Rosewood Villa Magna,"Paseo de la Castellana, 22, Madrid",28006,4.5,2651.0,"spa, gym, lodging, health, restaurant, food, point_of_interest, establishment",40.4299515,-3.688152499999999,Restauración
Hotel Zenit Abeba,"Calle de Alcántara, 63, Madrid",28006,4.3,1639.0,"lodging, point_of_interest, establishment",40.4319527,-3.6736068,Alojamiento
Hotel Único Madrid,"Calle de Claudio Coello, 67, Madrid",28006,4.7,527.0,"lodging, restaurant, food, point_of_interest, establishment",40.428537,-3.6863313,Restauración
Hyatt Regency Hesperia Madrid,"Paseo de la Castellana, 57, Madrid",28006,4.5,1727.0,"lodging, point_of_interest, establishment",40.4388581,-3.6915108,Alojamiento
Meliá Madrid Serrano,"Calle de Claudio Coello, 139, Madrid",28006,4.4,2744.0,"lodging, point_of_interest, establishment",40.435977,-3.685441,Alojamiento
H-A Apartahotel Quo Eraso,"Calle de Ardemans, 13, Madrid",28006,3.9,526.0,"lodging, point_of_interest, establishment",40.433898,-3.671885899999999,Alojamiento
Hotel Suites Barrio De Salamanca,"Calle del General Oráa, 17, Madrid",28006,4.4,386.0,"lodging, point_of_interest, establishment",40.4363629,-3.6857229,Alojamiento
AC Hotel Avenida de America,"Calle de Cartagena, 83-85, Madrid",28006,4.3,1895.0,"lodging, point_of_interest, establishment",40.4380379,-3.6726858,Alojamiento
Restaurante Milos - La Parrilla Griega,"Calle de Francisco Silvela, 30, Madrid",28006,4.4,2026.0,"meal_takeaway, restaurant, food, point_of_interest, establishment",40.4321534,-3.671916,Restauración
Hotel NH Madrid Balboa,"Calle de Núñez de Balboa, 112, Madrid",28006,4.3,1229.0,"lodging, point_of_interest, establishment",40.43589,-3.681832,Alojamiento
Petit Palace President Castellana,"Calle del Marqués de Villamagna, 4, Madrid",28006,4.0,1516.0,"lodging, point_of_interest, establishment",40.42923569999999,-3.688395499999999,Alojamiento
Hotel NH Madrid Príncipe de Vergara,"Calle del Príncipe de Vergara, 92, Madrid",28006,4.3,2317.0,"lodging, point_of_interest, establishment",40.436659,-3.679069999999999,Alojamiento
Hotel Miguel Angel,"Calle de Miguel Ángel, 31, Madrid",28006,4.1,2004.0,"lodging, point_of_interest, establishment",40.4376228,-3.6914117,Alojamiento
Dormirdcine,"Calle del Príncipe de Vergara, 87, Madrid",28006,4.4,1521.0,"lodging, point_of_interest, establishment",40.4363327,-3.6794777,Alojamiento
Taberna de La Daniela Goya,"Calle del General Pardiñas, 21, BAJO, Madrid",28006,4.1,2259.0,"bar, restaurant, food, point_of_interest, establishment",40.42632020000001,-3.6786533,Restauración
ICON Embassy,"Calle de Serrano, 46, Madrid",28006,4.4,857.0,"lodging, restaurant, food, point_of_interest, establishment",40.4270199,-3.6873236,Restauración
Hotel Serrano,"Calle del Marqués de Villamejor, 8, Madrid",28006,4.2,484.0,"lodging, point_of_interest, establishment",40.4310378,-3.6874355,Alojamiento
Taberna Degusta,"Calle de Francisco Silvela, 83, Madrid",28006,4.4,687.0,"meal_delivery, bar, restaurant, food, point_of_interest, establishment",40.4368662,-3.6771567,Restauración
Hotel NH Madrid Lagasca,"Calle de Lagasca, 64, Madrid",28006,4.2,910.0,"lodging, point_of_interest, establishment",40.427538,-3.685109000000001,Alojamiento
VP Madroño,"Calle del General Díaz Porlier, 101, Madrid",28006,4.4,1271.0,"lodging, restaurant, food, point_of_interest, establishment",40.43513129999999,-3.6765655,Restauración
Barceló Emperatriz,"Calle de López de Hoyos, 4, Madrid",28006,4.6,1193.0,"lodging, point_of_interest, establishment",40.43636859999999,-3.688504699999999,Alojamiento
Hotel Catalonia Goya,"Calle de Goya, 49, Madrid",28006,4.3,1167.0,"lodging, point_of_interest, establishment",40.4252539,-3.6821996,Alojamiento
ABC Serrano Commercial Center,"Calle de Serrano, 61, Madrid",28006,3.9,9837.0,"shopping_mall, shoe_store, supermarket, grocery_or_supermarket, clothing_store, store, food, point_of_interest, establishment",40.4321406,-3.6870326,Restauración
Restaurante La Cuchara,"Calle del Conde de Peñalver, 82, Madrid",28006,4.2,2471.0,"cafe, bar, store, restaurant, food, point_of_interest, establishment",40.4329204,-3.674826000000001,Restauración
Restaurante Los Montes de Galicia,"Calle de Azcona, 46, Madrid",28006,4.8,10402.0,"restaurant, food, point_of_interest, establishment",40.4346777,-3.668364,Restauración
Taberna del Puerto,"Calle de Diego de León, 58, Madrid",28006,4.0,353.0,"bar, restaurant, food, point_of_interest, establishment",40.4344825,-3.6770095,Restauración
Quirónsalud San José Hospital,"Calle de Cartagena, 111, Madrid",28006,3.0,1749.0,"hospital, health, point_of_interest, establishment",40.4403502,-3.6743248,Salud
Fundación Carolina,"Plaza del Marqués de Salamanca, 8, 4°, Madrid",28006,4.4,18.0,"point_of_interest, establishment",40.4305239,-3.679170399999999,Otros / No categorizado
Lateral Velázquez,"Calle Velázquez, 57, Madrid",28006,4.2,5249.0,"restaurant, food, point_of_interest, establishment",40.4285694,-3.6840918,Restauración
STYLISH CITY APARTMENTS MADRID,"37, Calle de Luis Cabrera, 5A, Madrid",28006,2.8,176.0,"lodging, point_of_interest, establishment",40.443226,-3.6745053,Alojamiento
Fundación Juan March,"Calle de Castelló, 77, Madrid",28006,4.6,4087.0,"museum, point_of_interest, establishment",40.4311763,-3.6812725,Otros / No categorizado
Fortuny Home Club,"Calle de Fortuny, 34, Madrid",28006,3.9,4760.0,"restaurant, food, point_of_interest, establishment",40.43445529999999,-3.689987899999999,Restauración
Clínicas Diego de León,"Calle de Diego de León, 69, 2ºD, Madrid",28006,4.3,1626.0,"health, point_of_interest, establishment",40.4346764,-3.6751903,Salud
Mutualidad,"Calle de Francisco Silvela, 106, Madrid",28006,2.9,513.0,"insurance_agency, point_of_interest, establishment",40.4389851,-3.6785267,Finanzas y Seguros
TreZe Restaurante,"Calle del General Pardiñas, 34, Madrid",28006,4.5,1736.0,"restaurant, bar, food, point_of_interest, establishment",40.426798,-3.6783377,Restauración
Madrid Mercantile Registry,"Calle del Príncipe de Vergara, 72, Madrid",28006,3.5,393.0,"local_government_office, point_of_interest, establishment",40.4340313,-3.6792094,Administración / Localidad
Dirección General de Seguros,"Paseo de la Castellana, 44, Madrid",28006,1.8,24.0,"local_government_office, point_of_interest, establishment",40.4338253,-3.687827500000001,Administración / Localidad
Embassy of the United States of America,"Calle de Serrano, 75, Madrid",28006,3.7,748.0,"embassy, point_of_interest, establishment",40.43482159999999,-3.687551099999999,Administración / Localidad
Cazorla,"Calle de Castelló, 99, Madrid",28006,4.3,2647.0,"bar, restaurant, food, point_of_interest, establishment",40.43391889999999,-3.680861300000001,Restauración
Oriol Balaguer,"Calle de José Ortega y Gasset, 44, Madrid",28006,4.0,387.0,"bakery, store, food, point_of_interest, establishment",40.4298789,-3.6780162,Restauración
Defensor del Pueblo,"Paseo de Eduardo Dato, 31, Madrid",28006,3.6,48.0,"point_of_interest, establishment",40.4331789,-3.6898976,Otros / No categorizado
Rafael del Pino Foundation,"Calle de Rafael Calvo, 39, Madrid",28006,4.6,212.0,"point_of_interest, establishment",40.4343151,-3.689215099999999,Otros / No categorizado
Restaurante O'Caldiño,"Calle de Lagasca, 74, Madrid",28006,4.2,2273.0,"restaurant, food, point_of_interest, establishment",40.42856439999999,-3.6848595,Restauración
Gilmar - Barrio de Salamanca,"Calle de Diego de León, 15, Madrid",28006,4.4,36.0,"real_estate_agency, finance, point_of_interest, establishment",40.435125,-3.6838235,Comercio / Servicios
Apartamento La Milla De Oro,"Calle de Lagasca, 67, Apt 508-B, Madrid",28006,4.2,6.0,"lodging, point_of_interest, establishment",40.42883949999999,-3.6851044,Alojamiento
Clínica Laservisión,"Calle de José Ortega y Gasset, 56 duplicado, Madrid",28006,4.7,377.0,"doctor, health, point_of_interest, establishment",40.42989550000001,-3.676245099999999,Comercio / Servicios
limehome Ramón de la Cruz 41,"Calle de Don Ramón de la Cruz, 41, Madrid",28006,4.4,238.0,"lodging, point_of_interest, establishment",40.4290228,-3.6803964,Alojamiento
Cervecería José Luis (Serrano),"Calle de Serrano, 89, Madrid",28006,4.2,1072.0,"bar, restaurant, food, point_of_interest, establishment",40.4369999,-3.6865438,Restauración
Lázaro Galdiano Museum,"Calle de Serrano, 122, Madrid",28006,4.7,1364.0,"museum, tourist_attraction, library, point_of_interest, establishment",40.4369187,-3.6857512,Turismo / Atracción
Intimissimi,"Calle de Ayala, 13, Madrid",28006,4.0,91.0,"clothing_store, store, point_of_interest, establishment",40.4279967,-3.6866103,Comercio / Servicios
Fundación Residencia de Estudiantes,"Calle del Pinar, 21-23, Madrid",28006,4.5,1276.0,"point_of_interest, establishment",40.44067619999999,-3.687949699999999,Otros / No categorizado
Bikram Yoga Spain ©,"Calle de Maldonado, 52, Madrid",28006,4.1,185.0,"gym, health, point_of_interest, establishment",40.4333952,-3.675692799999999,Comercio / Servicios
BBVA Particulares y Empresas,"Calle de Diego de León, 16, Madrid",28006,2.3,105.0,"bank, finance, point_of_interest, establishment",40.43484159999999,-3.6838832,Comercio / Servicios
"Crowne Plaza Madrid Centre Retiro, an IHG Hotel","Calle del Pez Volador, 1, Madrid",28007,4.2,4994.0,"lodging, point_of_interest, establishment",40.4130323,-3.669223,Alojamiento
Rafaelhoteles Atocha,"Calle de Méndez Álvaro, 30, Madrid",28007,4.1,4105.0,"lodging, point_of_interest, establishment",40.401368,-3.6870781,Alojamiento
Hotel NH Madrid Atocha,"Paseo de la Infanta Isabel, 9, Madrid",28007,4.2,1566.0,"lodging, point_of_interest, establishment",40.40769,-3.689457,Alojamiento
Novotel Madrid Center,"Calle de O'Donnell, 53, Madrid",28007,4.4,9087.0,"lodging, point_of_interest, establishment",40.42163979999999,-3.6722838,Alojamiento
AC Hotel Atocha,"Calle de las Delicias, 42, Madrid",28007,4.3,1884.0,"lodging, point_of_interest, establishment",40.4038003,-3.6900165,Alojamiento
Hotel Catalonia El Retiro,"Avenida de la Ciudad de Barcelona, 113, Madrid",28007,4.5,1745.0,"lodging, point_of_interest, establishment",40.398902,-3.670035,Alojamiento
Hotel Claridge,"Plaza del Conde de Casal, 6, Madrid",28007,4.4,2734.0,"lodging, point_of_interest, establishment",40.4063418,-3.669318199999999,Alojamiento
Mediodía Hotel,"Plaza del Emperador Carlos V, 8, Madrid",28007,4.2,3426.0,"lodging, point_of_interest, establishment",40.4085732,-3.692866899999999,Alojamiento
Hotel Agumar,"Paseo de la Reina Cristina, 7, Madrid",28007,4.0,4914.0,"lodging, point_of_interest, establishment",40.40702210000001,-3.6832129,Alojamiento
Restaurante Fathe Pur,"Calle de Ibiza, 42, Madrid",28007,4.4,1683.0,"restaurant, food, point_of_interest, establishment",40.4179938,-3.673506100000001,Restauración
La Mordida,"Calle de Pío Baroja, 9, Madrid",28007,4.3,4942.0,"restaurant, food, point_of_interest, establishment",40.413717,-3.673971,Restauración
Fogg Bar Birras & Burgers,"Plaza de los Reyes Magos, 6, Madrid",28007,4.7,1515.0,"bar, restaurant, food, point_of_interest, establishment",40.40806190000001,-3.6764862,Restauración
Hotel NH Madrid Nacional,"Paseo del Prado, 48, Madrid",28007,4.3,3941.0,"lodging, point_of_interest, establishment",40.409962,-3.692673999999999,Alojamiento
Hospital Beata María Ana,"Calle del Doctor Esquerdo, 83, Madrid",28007,2.6,1597.0,"hospital, health, point_of_interest, establishment",40.418121,-3.6681229,Salud
De Madrid al Cielo,"Avenida del Mediterráneo, 28, Madrid",28007,4.8,105.0,"point_of_interest, establishment",40.406704,-3.6735346,Otros / No categorizado
Kasanova,"Calle del Alcalde Sainz de Baranda, 44, Madrid",28007,4.3,556.0,"restaurant, food, point_of_interest, establishment",40.4164924,-3.6725143,Restauración
Gregorio Marañón General University Hospital,"Calle del Doctor Esquerdo, 46, Madrid",28007,3.4,1695.0,"hospital, doctor, health, point_of_interest, establishment",40.41919319999999,-3.671605,Comercio / Servicios
Restaurante Ogrelo,"Calle de Menorca, 39, Madrid",28007,4.6,3747.0,"restaurant, food, point_of_interest, establishment",40.41944469999999,-3.6742675,Restauración
El Paraíso del Desierto,"Calle del Doctor Esquerdo, 140, Madrid",28007,4.1,949.0,"restaurant, food, point_of_interest, establishment",40.4050276,-3.671784599999999,Restauración
El Retiro Park,Madrid,28007,4.8,198317.0,"park, tourist_attraction, point_of_interest, establishment",40.415258,-3.6834657,Naturaleza / Recreación
Restaurante Couzapín,"Calle de Menorca, 33, Madrid",28007,4.3,6020.0,"bar, restaurant, food, point_of_interest, establishment",40.4195791,-3.675219999999999,Restauración
Palacio de Cristal,"Paseo de Cuba, 4, Madrid",28007,4.6,46462.0,"museum, tourist_attraction, point_of_interest, establishment",40.41363519999999,-3.681999699999999,Turismo / Atracción
La Dehesa II,"Avenida del Mediterráneo, 12, Madrid",28007,3.8,376.0,"restaurant, cafe, bar, store, food, point_of_interest, establishment",40.40716029999999,-3.6767356,Restauración
Employment office,"Calle de Méndez Álvaro, 7, Madrid",28007,2.9,204.0,"local_government_office, point_of_interest, establishment",40.4015131,-3.686423599999999,Administración / Localidad
Mercadona,"Plaza de los Reyes Magos, s/n, Madrid",28007,4.2,2389.0,"supermarket, grocery_or_supermarket, store, food, point_of_interest, establishment",40.4090404,-3.6760935,Restauración
ING,"Calle de O'Donnell, 46, Madrid",28007,2.7,614.0,"bank, atm, finance, point_of_interest, establishment",40.4211941,-3.6732492,Comercio / Servicios
Kapital,"Calle de Atocha, 125, Madrid",28007,3.7,9405.0,"night_club, point_of_interest, establishment",40.4097611,-3.6931083,Otros / No categorizado
In-Gravity Retiro Tienda de Patines,"Plaza de Mariano de Cavia, 2, Madrid",28007,4.5,684.0,"store, point_of_interest, establishment",40.4080027,-3.679018,Comercio / Servicios
BBVA,"Calle del Doctor Esquerdo, 125, Madrid",28007,2.5,33.0,"bank, atm, accounting, finance, point_of_interest, establishment",40.4119653,-3.6693675,Comercio / Servicios
Alcampo,"Calle del Camino de los Vinateros, s/n, Madrid",28007,4.0,7898.0,"supermarket, grocery_or_supermarket, clothing_store, home_goods_store, bakery, store, food, point_of_interest, establishment",40.4120436,-3.6606455,Restauración
Triana,"Calle de Narváez, 39, Madrid",28007,4.4,4461.0,"bar, restaurant, food, point_of_interest, establishment",40.4199782,-3.6756839,Restauración
Municipal Enterprise of Transport - Central Seat,"Calle del Cerro de la Plata, 4, Madrid",28007,3.7,614.0,"point_of_interest, establishment",40.4001247,-3.6752697,Otros / No categorizado
Efecto 2000,"Calle de Valderribas, 34, Madrid",28007,4.0,1065.0,"electronics_store, store, point_of_interest, establishment",40.4041169,-3.6750927,Comercio / Servicios
Consejería de Políticas Sociales y Familia,"1, Calle de O'Donnell, 50, Madrid",28007,2.9,254.0,"local_government_office, point_of_interest, establishment",40.42097079999999,-3.6716534,Administración / Localidad
Hospital Infantil Universitario Niño Jesús,"Avenida de Menéndez Pelayo, 65, Madrid",28007,4.0,796.0,"hospital, health, point_of_interest, establishment",40.4143704,-3.676578,Salud
CATAI O'DONNELL,"C/ O'Donell, 49, Madrid",28007,3.5,292.0,"travel_agency, point_of_interest, establishment",40.4215307,-3.6735309,Otros / No categorizado
Pacific,"Avenida del Mediterráneo, 6, Madrid",28007,4.1,514.0,"bar, night_club, point_of_interest, establishment",40.4071571,-3.677339999999999,Restauración
Alquitara,"Calle de Téllez, 29, Madrid",28007,3.2,928.0,"bar, restaurant, food, point_of_interest, establishment",40.4019964,-3.6783529,Restauración
BBVA,"Avenida de la Albufera, 14, Madrid",28007,1.4,149.0,"bank, atm, accounting, finance, point_of_interest, establishment",40.3976123,-3.668072700000001,Comercio / Servicios
Taberna Restaurante Murciano El Caldero,"Travesía de Téllez, 2, Madrid",28007,3.9,1130.0,"restaurant, point_of_interest, food, establishment",40.4025729,-3.680894599999999,Restauración
Movistar Arena Madrid,"Avenida de Felipe II, s/n, Madrid",28007,4.6,62770.0,"stadium, night_club, restaurant, point_of_interest, food, establishment",40.42387859999999,-3.6717512,Restauración
Radiology Center Mama,"Calle de Fernán González, 66, Madrid",28007,4.0,242.0,"point_of_interest, health, establishment",40.4174576,-3.6747826,Salud
Bodegas Rosell,"Calle del General Lacy, 14, Madrid",28007,4.3,5860.0,"bar, restaurant, point_of_interest, food, establishment",40.40380809999999,-3.6909254,Restauración
Centro Deportivo Municipal Daoiz and Velarde 1,"Plaza de Daoíz y Velarde, 5, Madrid",28007,4.1,1523.0,"gym, point_of_interest, health, establishment",40.4013814,-3.677992499999999,Comercio / Servicios
Taberna Laredo,"Calle del Doctor Castelo, 30, Madrid",28007,4.5,3301.0,"bar, restaurant, point_of_interest, food, establishment",40.4201583,-3.6751321,Restauración
Lidl,"Calle de Narciso Serra, 13, 15, Madrid",28007,4.0,1490.0,"point_of_interest, supermarket, grocery_or_supermarket, store, food, establishment",40.405189,-3.678827999999999,Restauración
Bar El Brillante,"Plaza del Emperador Carlos V, 8, Madrid",28007,3.6,23919.0,"bar, restaurant, point_of_interest, food, establishment",40.4086125,-3.6928462,Restauración
IES Carlos María Rodríguez de Valcárcel,"Plaza del Encuentro, 4, Madrid",28007,3.3,104.0,"point_of_interest, establishment",40.4054426,-3.652352300000001,Otros / No categorizado
RC Madrid.com,"Calle de Gandía, 8, Madrid",28007,4.3,392.0,"point_of_interest, store, establishment",40.3977727,-3.6708644,Comercio / Servicios
Menéndez Pelayo | GALA Autoescuela,"Avenida de Menéndez Pelayo, 34, Madrid",28007,4.9,1450.0,"point_of_interest, establishment",40.4055904,-3.6802525,Comercio / Servicios
Clínica ASISA Dental,"Calle de Cavanilles, 60, Madrid",28007,4.6,751.0,"dentist, point_of_interest, health, establishment",40.404158,-3.6726167,Salud
Hipercor,"Centro Comercial Méndez Álvaro, Madrid",28007,4.1,4756.0,"point_of_interest, supermarket, grocery_or_supermarket, store, food, establishment",40.39465999999999,-3.675898999999999,Restauración
Doctores del PC - Reparación ordenadores,"Avenida de Menéndez Pelayo, 38, Madrid",28007,4.8,805.0,"electronics_store, point_of_interest, store, establishment",40.4050494,-3.6806706,Comercio / Servicios
Academia de Baile VM22,"Calle de la Primavera de Praga, 11, Madrid",28007,4.3,24.0,"point_of_interest, establishment",40.411643,-3.655557,Otros / No categorizado
Central Park,"Avenida de Menéndez Pelayo, 67, Madrid",28007,3.0,633.0,"bar, night_club, point_of_interest, establishment",40.41262249999999,-3.6764848,Restauración
PCBox,"Trabajaremos todo el Verano 2025, Whatsapp : 684393361 PREFERENTE, Avenida de la Ciudad de Barcelona, 37, Local 10, Madrid",28007,3.7,152.0,"electronics_store, point_of_interest, store, establishment",40.40385879999999,-3.679361900000001,Comercio / Servicios
Eurostars Madrid Gran Vía,"Calle de Leganitos, 13, Madrid",28008,4.1,1382.0,"lodging, point_of_interest, establishment",40.4212153,-3.7099122,Alojamiento
Leonardo Boutique Hotel Madrid,"Calle de Vallehermoso, 65, Madrid",28008,4.3,1769.0,"lodging, point_of_interest, establishment",40.4372343,-3.708568,Alojamiento
"Krüger - Restaurante Alemán | Cervecería Artesanal, Plaza España","Calle de la Princesa, 5, Madrid",28008,4.0,1442.0,"bar, restaurant, food, point_of_interest, establishment",40.4246643,-3.7133071,Restauración
Espahotel Plaza España,"Plaza de España, 7, Madrid",28008,4.0,1278.0,"lodging, point_of_interest, establishment",40.42246149999999,-3.7121006,Alojamiento
Motel One Madrid - Plaza de España,"Calle del Tutor, 1, Madrid",28008,4.3,1378.0,"lodging, point_of_interest, establishment",40.42564399999999,-3.713794999999999,Alojamiento
Vincci Capitol Hotel,"Gran Vía, 41, Madrid",28008,4.4,2637.0,"lodging, point_of_interest, establishment",40.420444,-3.706584,Alojamiento
Muralto Madrid Princesa,"Calle del Buen Suceso, 3, Madrid",28008,4.5,839.0,"lodging, point_of_interest, establishment",40.42914529999999,-3.716850199999999,Alojamiento
Hotel Santo Domingo,"Calle de San Bernardo, 1, Madrid",28008,3.9,5770.0,"lodging, point_of_interest, establishment",40.4206587,-3.7085482,Alojamiento
Acta Madfor,"Paseo de la Florida, 13, Madrid",28008,4.2,1945.0,"lodging, point_of_interest, establishment",40.421447,-3.721714,Alojamiento
Hotel Sterling Gran Vía,"Calle de San Bernardo, 29, 31, Madrid",28008,3.9,1416.0,"lodging, point_of_interest, establishment",40.423015,-3.707661,Alojamiento
Sercotel Gran Hotel Conde Duque,"Plaza del Conde del Valle de Súchil, 5, Madrid",28008,4.3,2764.0,"lodging, point_of_interest, establishment",40.43076910000001,-3.7077407,Alojamiento
Hotel Mayorazgo,"Calle de la Flor Baja, 3, Madrid",28008,4.4,4729.0,"lodging, point_of_interest, establishment",40.4221209,-3.7095924,Alojamiento
Suites Viena Plaza de España,"Calle de Juan Álvarez Mendizábal, 17, Madrid",28008,4.5,951.0,"lodging, point_of_interest, establishment",40.4248194,-3.7150606,Alojamiento
Hotel Príncipe Pío,"Cuesta de San Vicente, 14, Madrid",28008,4.3,2412.0,"lodging, point_of_interest, establishment",40.4211673,-3.714677,Alojamiento
Taberna del Alabardero Madrid - Restaurante Palacio Real,"Calle de Felipe V, 6, Madrid",28008,4.3,1712.0,"bar, restaurant, food, point_of_interest, establishment",40.4186021,-3.710921599999999,Restauración
Exe Suites 33,"Calle de Leganitos, 33, Madrid",28008,4.1,697.0,"lodging, point_of_interest, establishment",40.42209,-3.7106566,Alojamiento
Palacio de los Duques Gran Meliá - The Leading Hotels of the World,"Cuesta de Santo Domingo, 5, Madrid",28008,4.7,2321.0,"lodging, point_of_interest, establishment",40.419756,-3.709671,Alojamiento
Meliá Madrid Princesa,"Calle de la Princesa, 27, Madrid",28008,4.3,3482.0,"lodging, point_of_interest, establishment",40.427286,-3.714112,Alojamiento
Parking IH Galaxia Moncloa,"Calle de Isaac Peral, 4, Madrid",28008,3.8,68.0,"parking, point_of_interest, establishment",40.4349584,-3.7180491,Naturaleza / Recreación
Petit Palace Plaza España,"Calle de San Bernardo, 3, Madrid",28008,4.2,1381.0,"lodging, point_of_interest, establishment",40.42088999999999,-3.7083531,Alojamiento
HOTEL EXE MONCLOA,"Calle Arcipreste de Hita, 10, Madrid",28008,4.1,3038.0,"lodging, point_of_interest, establishment",40.4337597,-3.717466,Alojamiento
Restaurante Horno de Juan,"Calle de Joaquín María López, 30, Madrid",28008,3.9,365.0,"restaurant, food, point_of_interest, establishment",40.4377009,-3.7117829,Restauración
Hotel Vincci Via 66,"Gran Vía, 66, Madrid",28008,4.4,2354.0,"lodging, point_of_interest, establishment",40.42242909999999,-3.708891500000001,Alojamiento
Puente de los Franceses,"Calle de Aniceto Marinas, 116, Madrid",28008,4.2,537.0,"tourist_attraction, point_of_interest, establishment",40.4336687,-3.7358665,Turismo / Atracción
Hotel Casón del Tormes,"Calle del Río, 7, Madrid",28008,4.3,1058.0,"cafe, bar, lodging, food, point_of_interest, store, establishment",40.422335,-3.711609,Restauración
MuchoMadrid,"Gran Vía, 59, 7 Derecha, Madrid",28008,4.2,288.0,"lodging, point_of_interest, establishment",40.42201719999999,-3.7090772,Alojamiento
Hostal Arrate,"Calle de Gaztambide, 61, Madrid",28008,3.6,171.0,"lodging, point_of_interest, establishment",40.4369285,-3.7155391,Alojamiento
Hotel Meninas,"Calle de Campomanes, 7, Madrid",28008,4.3,574.0,"lodging, point_of_interest, establishment",40.41911199999999,-3.70932,Alojamiento
"Room Mate Mario, Madrid","Calle de Campomanes, 4, Madrid",28008,4.5,1061.0,"lodging, point_of_interest, establishment",40.4188302,-3.7093121,Alojamiento
Miyama Restaurant,"Calle de la Flor Baja, 5, Madrid",28008,4.4,1095.0,"restaurant, food, point_of_interest, establishment",40.42222219999999,-3.71,Restauración
ibis Madrid Centro,"Calle de Manuela Malasaña, 6, Madrid",28008,4.4,1258.0,"lodging, point_of_interest, establishment",40.4287373,-3.703080499999999,Alojamiento
Temple of Debod,"Calle de Ferraz, 1, Madrid",28008,4.4,60981.0,"tourist_attraction, point_of_interest, establishment",40.4240216,-3.717769499999999,Turismo / Atracción
Hotel Ópera,"Cuesta de Santo Domingo, 2, Madrid",28008,4.3,1957.0,"lodging, point_of_interest, establishment",40.4189051,-3.7101219,Alojamiento
Teatro Lope de Vega,"Gran Vía, 57, Madrid",28008,4.5,21682.0,"point_of_interest, establishment",40.4217904,-3.7086924,Otros / No categorizado
Espahotel Gran Vía,"Gran Vía, 65, Madrid",28008,4.2,1591.0,"lodging, point_of_interest, establishment",40.4226029,-3.7099818,Alojamiento
Restaurante Gobolem,"Paseo de San Francisco de Sales, 11, Madrid",28008,3.6,1344.0,"restaurant, cafe, food, point_of_interest, establishment",40.44031299999999,-3.716384,Restauración
La Esquina del Real,"Calle de la Amnistía, 4, Madrid",28008,4.6,972.0,"restaurant, food, point_of_interest, establishment",40.4173635,-3.710353399999998,Restauración
Vitium Urban Suites,"Gran Vía, 61, 5ta Planta, Madrid",28008,4.0,831.0,"lodging, point_of_interest, establishment",40.42231470000001,-3.7095801,Alojamiento
Royal Palace of Madrid,Madrid,28008,4.7,116691.0,"tourist_attraction, point_of_interest, establishment",40.417955,-3.714311999999999,Turismo / Atracción
Apartamento Leganitos 9,"Calle de Leganitos, 9, Madrid",28008,3.8,29.0,"lodging, point_of_interest, establishment",40.4210968,-3.709806099999999,Alojamiento
Restaurante El Senador,"Plaza de la Marina Española, 2, Madrid",28008,4.5,1486.0,"restaurant, point_of_interest, food, establishment",40.42060480000001,-3.711467999999999,Restauración
Centro de Cultura Contemporánea Conde Duque,"Calle del Conde Duque, 11, Madrid",28008,4.5,1220.0,"tourist_attraction, art_gallery, museum, library, point_of_interest, establishment",40.4274072,-3.710719499999999,Turismo / Atracción
Hostel Meeting Point Madrid,"Calle del Factor, 5, Madrid",28008,3.5,638.0,"lodging, point_of_interest, establishment",40.41599849999999,-3.712626700000001,Alojamiento
Hotel Abalu - Design & boutique,"Calle del Pez, 19, Madrid",28008,3.7,722.0,"lodging, point_of_interest, establishment",40.4238695,-3.705835099999999,Alojamiento
La Chocita Del Loro,"Gran Vía, 70, Madrid",28008,4.5,5096.0,"point_of_interest, establishment",40.4227462,-3.709489,Otros / No categorizado
Hospedium Hotel Los Condes,"Calle de los Libreros, 7, Madrid",28008,4.3,1379.0,"lodging, point_of_interest, establishment",40.42193109999999,-3.706583799999999,Alojamiento
Jardines de Sabatini Apartosuites,"Cuesta de San Vicente, 16, Planta Ático, Madrid",28008,4.6,1348.0,"lodging, point_of_interest, establishment",40.4209608,-3.714914299999999,Alojamiento
HM Hospital Universitario Madrid,"Plaza del Conde del Valle de Súchil, 16, Madrid",28008,3.2,1061.0,"hospital, doctor, point_of_interest, health, establishment",40.43133589999999,-3.7067761,Comercio / Servicios
Restaurante Casa Mono,"Calle del Tutor, 37, Madrid",28008,4.0,3284.0,"restaurant, point_of_interest, food, establishment",40.42921399999999,-3.7166635,Restauración
Hotel Emperador,"Gran Vía, 53, Madrid",28008,4.4,4375.0,"lodging, point_of_interest, establishment",40.42140819999999,-3.708169899999999,Alojamiento
Centro Comercial Príncipe Pío,"Paseo de la Florida, 2, S/N, Madrid",28008,4.2,32599.0,"shopping_mall, clothing_store, point_of_interest, grocery_or_supermarket, store, food, establishment",40.42194569999999,-3.720290799999999,Restauración
La Fragua de Sebín,"Calle del Divino Pastor, 21, Madrid",28008,4.2,1603.0,"restaurant, point_of_interest, food, establishment",40.4275263,-3.703811299999999,Restauración
Restaurante Con 2 Fogones,"Calle de San Bernardino, 9, Madrid",28008,4.3,1651.0,"restaurant, bar, point_of_interest, food, establishment",40.425233,-3.710674999999999,Restauración
Nebrija University,"Calle de Santa Cruz de Marcenado, 27, Madrid",28008,3.9,1149.0,"university, point_of_interest, establishment",40.42955989999999,-3.7130855,Educación
El Pimiento Verde - Quintana,"Calle de Quintana, 1, Madrid",28008,4.4,4013.0,"restaurant, point_of_interest, food, establishment",40.4286407,-3.7152005,Restauración
LA BOLA,"Calle de la Bola, 5, Madrid",28008,4.2,7108.0,"restaurant, point_of_interest, food, establishment",40.420011,-3.71047,Restauración
"Hotel Indigo Madrid - Gran Via, an IHG Hotel","Calle de Silva, 6, Madrid",28008,4.3,1937.0,"lodging, point_of_interest, establishment",40.4206372,-3.707305,Alojamiento
Hotel Preciados,"Calle de Preciados, 37, Madrid",28008,4.5,1532.0,"lodging, point_of_interest, establishment",40.4196938,-3.707504599999999,Alojamiento
Novotel Madrid Center,"Calle de O'Donnell, 53, Madrid",28009,4.4,9087.0,"lodging, point_of_interest, establishment",40.42163979999999,-3.6722838,Alojamiento
"Crowne Plaza Madrid Centre Retiro, an IHG Hotel","Calle del Pez Volador, 1, Madrid",28009,4.2,4994.0,"lodging, point_of_interest, establishment",40.4130323,-3.669223,Alojamiento
"Mandarin Oriental Ritz, Madrid","Plaza de la Lealtad, 5, Madrid",28009,4.7,3969.0,"spa, lodging, food, point_of_interest, establishment",40.4157577,-3.692606699999999,Restauración
H10 Puerta de Alcalá,"Calle Alcalá, 66, Madrid",28009,4.4,2831.0,"lodging, point_of_interest, establishment",40.422182,-3.681154,Alojamiento
"Hotel Palacio Del Retiro, Autograph Collection","Calle de Alfonso XII, 14, Madrid",28009,4.5,485.0,"lodging, point_of_interest, establishment",40.4177785,-3.689227,Alojamiento
Restaurante Fathe Pur,"Calle de Ibiza, 42, Madrid",28009,4.4,1683.0,"restaurant, food, point_of_interest, establishment",40.4179938,-3.673506100000001,Restauración
Horno de Juan,"Calle de Lope de Rueda, 4, Madrid",28009,4.2,876.0,"restaurant, food, point_of_interest, establishment",40.4236435,-3.6774816,Restauración
La Mordida,"Calle de Pío Baroja, 9, Madrid",28009,4.3,4942.0,"restaurant, food, point_of_interest, establishment",40.413717,-3.673971,Restauración
ICON Wipton,"Calle de Jorge Juan, 17, Madrid",28009,4.5,646.0,"lodging, restaurant, food, point_of_interest, establishment",40.4240272,-3.6854174,Restauración
Hotel Vincci Soma,"Calle de Goya, 79, Madrid",28009,4.3,2841.0,"lodging, point_of_interest, establishment",40.4250624,-3.6781604,Alojamiento
Petit Palace Savoy Alfonso XII,"Calle de Alfonso XII, 18, Madrid",28009,4.5,1414.0,"lodging, restaurant, food, point_of_interest, establishment",40.4171891,-3.689137399999999,Restauración
Hospes Puerta de Alcalá,"Plaza de la Independencia, 3, Madrid",28009,4.4,1030.0,"spa, lodging, restaurant, food, point_of_interest, establishment",40.4206199,-3.689281300000001,Restauración
AC Hotel Recoletos,"Calle de Recoletos, 18, Madrid",28009,4.5,586.0,"lodging, point_of_interest, establishment",40.42144649999999,-3.6895566,Alojamiento
VP Jardín de Recoletos,"Calle de Gil de Santivañes, 6, Madrid",28009,4.5,671.0,"parking, lodging, restaurant, food, point_of_interest, establishment",40.4223075,-3.689168100000001,Restauración
Hotel Catalonia Goya,"Calle de Goya, 49, Madrid",28009,4.3,1167.0,"lodging, point_of_interest, establishment",40.4252539,-3.6821996,Alojamiento
Hotel Agumar,"Paseo de la Reina Cristina, 7, Madrid",28009,4.0,4914.0,"lodging, point_of_interest, establishment",40.40702210000001,-3.6832129,Alojamiento
Petit Palace Lealtad Plaza,"Calle de Antonio Maura, 5, Madrid",28009,4.5,1386.0,"lodging, point_of_interest, establishment",40.41670930000001,-3.691041000000001,Alojamiento
Boutike Cibeles,"Calle Alcalá, 57, Madrid",28009,4.5,227.0,"lodging, point_of_interest, establishment",40.4198688,-3.6914576,Alojamiento
El Escondite de Villanueva l Restaurante Barrio Salamanca,"Calle de Villanueva, 26, Madrid",28009,4.1,2524.0,"liquor_store, bar, store, restaurant, food, point_of_interest, establishment",40.42236579999999,-3.6859795,Restauración
Apartamentos Goya 75,"Calle del General Pardiñas, 13, Madrid",28009,3.3,528.0,"lodging, point_of_interest, establishment",40.4253546,-3.6787347,Alojamiento
Fogg Bar Birras & Burgers,"Plaza de los Reyes Magos, 6, Madrid",28009,4.7,1515.0,"bar, restaurant, food, point_of_interest, establishment",40.40806190000001,-3.6764862,Restauración
Soho de Jorge Juan Bar Restaurante,"Calle de Jorge Juan, 50, Madrid",28009,4.2,828.0,"bar, restaurant, food, point_of_interest, establishment",40.4234702,-3.6808474,Restauración
El Corte Inglés Goya,"Calle de Goya, Sótano 1, Madrid",28009,4.2,25749.0,"shopping_mall, point_of_interest, establishment",40.424155,-3.674943899999999,Comercio / Servicios
Kasanova,"Calle del Alcalde Sainz de Baranda, 44, Madrid",28009,4.3,556.0,"restaurant, food, point_of_interest, establishment",40.4164924,-3.6725143,Restauración
Gregorio Marañón General University Hospital,"Calle del Doctor Esquerdo, 46, Madrid",28009,3.4,1695.0,"hospital, doctor, health, point_of_interest, establishment",40.41919319999999,-3.671605,Comercio / Servicios
Alfredo's Barbacoa,"Calle de Lagasca, 5, Madrid",28009,4.1,4199.0,"restaurant, food, point_of_interest, establishment",40.4213657,-3.685896,Restauración
Restaurante Ogrelo,"Calle de Menorca, 39, Madrid",28009,4.6,3747.0,"restaurant, food, point_of_interest, establishment",40.41944469999999,-3.6742675,Restauración
El Retiro Park,Madrid,28009,4.8,198317.0,"park, tourist_attraction, point_of_interest, establishment",40.415258,-3.6834657,Naturaleza / Recreación
Restaurante Couzapín,"Calle de Menorca, 33, Madrid",28009,4.3,6020.0,"bar, restaurant, food, point_of_interest, establishment",40.4195791,-3.675219999999999,Restauración
La Llave de Oro,"Calle Velázquez, 6, Madrid",28009,4.5,1157.0,"restaurant, food, point_of_interest, establishment",40.421899,-3.684179300000001,Restauración
ING,"Calle de O'Donnell, 46, Madrid",28009,2.7,614.0,"bank, atm, finance, point_of_interest, establishment",40.4211941,-3.6732492,Comercio / Servicios
Palacio de Cristal,"Paseo de Cuba, 4, Madrid",28009,4.6,46462.0,"museum, tourist_attraction, point_of_interest, establishment",40.41363519999999,-3.681999699999999,Turismo / Atracción
"Clínica Oftalmológica ""Lasik Center""","Calle de Alfonso XII, 10, Madrid",28009,4.5,152.0,"doctor, health, point_of_interest, establishment",40.4183519,-3.6890384,Comercio / Servicios
Restaurante La Giralda - Tu Rincón de Andalucía en Madrid -,"Calle de Claudio Coello, 24, Madrid",28009,4.3,1617.0,"restaurant, food, point_of_interest, establishment",40.42326529999999,-3.686597799999999,Restauración
Nuevo Teatro Alcalá,"Calle de Jorge Juan, 62, Madrid",28009,4.4,14596.0,"point_of_interest, establishment",40.42339690000001,-3.678246199999999,Otros / No categorizado
Hotel One Shot Recoletos,"Calle de Salustiano Olózaga, 4, Madrid",28009,4.0,653.0,"lodging, point_of_interest, establishment",40.4209045,-3.6913681,Alojamiento
Hospital Beata María Ana,"Calle del Doctor Esquerdo, 83, Madrid",28009,2.6,1597.0,"hospital, health, point_of_interest, establishment",40.418121,-3.6681229,Salud
CATAI O'DONNELL,"C/ O'Donell, 49, Madrid",28009,3.5,292.0,"travel_agency, point_of_interest, establishment",40.4215307,-3.6735309,Otros / No categorizado
Triana,"Calle de Narváez, 39, Madrid",28009,4.4,4461.0,"bar, restaurant, food, point_of_interest, establishment",40.4199782,-3.6756839,Restauración
Bolsa de Madrid,"Plaza de la Lealtad, 1, Madrid",28009,4.3,267.0,"finance, point_of_interest, establishment",40.4169855,-3.6920013,Finanzas y Seguros
Restaurante La Gamella,"Calle de Alfonso XII, 4, Bjo, Madrid",28009,4.4,680.0,"restaurant, food, point_of_interest, establishment",40.418948,-3.6891385,Restauración
Trattoria Sant Arcangelo,"Calle de Moreto, 15, Madrid",28009,4.1,1531.0,"restaurant, food, point_of_interest, establishment",40.4132898,-3.690214,Restauración
Casa Árabe,"Calle Alcalá, 62, Madrid",28009,4.2,3018.0,"movie_theater, point_of_interest, establishment",40.4216151,-3.6818586,Otros / No categorizado
Mercadona,"Plaza de los Reyes Magos, s/n, Madrid",28009,4.2,2389.0,"supermarket, grocery_or_supermarket, store, food, point_of_interest, establishment",40.4090404,-3.6760935,Restauración
Gobu,"Calle del General Pardiñas, 8, Madrid",28009,4.6,1725.0,"restaurant, food, point_of_interest, establishment",40.424136,-3.678569000000001,Restauración
Hostal Arco Iris,"O'Donnell, 27, Calle de O'Donnell, 27, Piso 6 Derecha, Madrid",28009,4.3,125.0,"lodging, point_of_interest, establishment",40.4217635,-3.6769628,Alojamiento
Consejería de Políticas Sociales y Familia,"1, Calle de O'Donnell, 50, Madrid",28009,2.9,254.0,"local_government_office, point_of_interest, establishment",40.42097079999999,-3.6716534,Administración / Localidad
Taberna Laredo,"Calle del Doctor Castelo, 30, Madrid",28009,4.5,3301.0,"bar, restaurant, food, point_of_interest, establishment",40.4201583,-3.6751321,Restauración
Hospital Infantil Universitario Niño Jesús,"Avenida de Menéndez Pelayo, 65, Madrid",28009,4.0,796.0,"hospital, health, point_of_interest, establishment",40.4143704,-3.676578,Salud
Consuelo Silveira Estética Profesional- Cursos Estética,"Calle del Duque de Sesto, 34, Madrid",28009,4.8,68.0,"point_of_interest, establishment",40.422427,-3.676112000000001,Otros / No categorizado
Radiology Center Mama,"Calle de Fernán González, 66, Madrid",28009,4.0,242.0,"health, point_of_interest, establishment",40.4174576,-3.6747826,Salud
Le Petit Prince,"Calle de Fernán González, 7, Madrid",28009,4.2,1350.0,"restaurant, food, point_of_interest, establishment",40.4243502,-3.6740567,Restauración
In-Gravity Retiro Tienda de Patines,"Plaza de Mariano de Cavia, 2, Madrid",28009,4.5,684.0,"store, point_of_interest, establishment",40.4080027,-3.679018,Comercio / Servicios
Embassy of France,"Calle de Salustiano Olózaga, 9, Madrid",28009,2.8,160.0,"embassy, point_of_interest, establishment",40.4207291,-3.6898476,Administración / Localidad
La Mejor Tarta de Chocolate del Mundo,"Calle Alcalá, 89, Madrid",28009,4.0,1317.0,"cafe, bakery, store, food, point_of_interest, establishment",40.42094519999999,-3.6851181,Restauración
Ilustre Colegio Notarial de Madrid,"Calle de Ruiz de Alarcón, 3, Madrid",28009,3.7,112.0,"point_of_interest, establishment",40.4175558,-3.691301499999999,Otros / No categorizado
Cremades & Calvo-Sotelo,"Calle de Jorge Juan, 30, Madrid",28009,3.9,110.0,"point_of_interest, establishment",40.42365279999999,-3.6836105,Otros / No categorizado
Hotel NH Collection Madrid Colón,"Calle del Marqués de Zurgena, 4, Madrid",28010,4.6,1495.0,"lodging, point_of_interest, establishment",40.42607599999999,-3.689069999999999,Alojamiento
Hotel NH Madrid Zurbano,"Calle de Zurbano, 79-81, Madrid",28010,4.2,2898.0,"lodging, point_of_interest, establishment",40.439051,-3.692878,Alojamiento
InterContinental Madrid by IHG,"Paseo de la Castellana, 49, Madrid",28010,4.6,4264.0,"lodging, point_of_interest, establishment",40.43632769999999,-3.6902269,Alojamiento
Miyama,"Paseo de la Castellana, 45, Madrid",28010,4.6,1203.0,"restaurant, food, point_of_interest, establishment",40.435713,-3.689798799999998,Restauración
Rosewood Villa Magna,"Paseo de la Castellana, 22, Madrid",28010,4.5,2651.0,"spa, gym, lodging, health, restaurant, food, point_of_interest, establishment",40.4299515,-3.688152499999999,Restauración
Sagaretxe,"Calle de Eloy Gonzalo, 26, Madrid",28010,4.0,3841.0,"bar, restaurant, food, point_of_interest, establishment",40.434241,-3.701002,Restauración
Hotel Único Madrid,"Calle de Claudio Coello, 67, Madrid",28010,4.7,527.0,"lodging, restaurant, food, point_of_interest, establishment",40.428537,-3.6863313,Restauración
Hotel Fénix Gran Meliá - The Leading Hotels of the World,"Calle de Hermosilla, 2, Madrid",28010,4.6,1673.0,"lodging, point_of_interest, establishment",40.426552,-3.68921,Alojamiento
Hyatt Regency Hesperia Madrid,"Paseo de la Castellana, 57, Madrid",28010,4.5,1727.0,"lodging, point_of_interest, establishment",40.4388581,-3.6915108,Alojamiento
Hotel NH Collection Madrid Abascal,"Calle de José Abascal, 47, Madrid",28010,4.6,2545.0,"lodging, point_of_interest, establishment",40.438314,-3.695182,Alojamiento
ICON Embassy,"Calle de Serrano, 46, Madrid",28010,4.4,857.0,"lodging, restaurant, food, point_of_interest, establishment",40.4270199,-3.6873236,Restauración
ibis Madrid Centro,"Calle de Manuela Malasaña, 6, Madrid",28010,4.4,1258.0,"lodging, point_of_interest, establishment",40.4287373,-3.703080499999999,Alojamiento
Petit Palace Santa Barbara,"Plaza de Santa Bárbara, 10, Madrid",28010,4.5,1702.0,"lodging, restaurant, food, point_of_interest, establishment",40.4264258,-3.696379599999999,Restauración
Petit Palace President Castellana,"Calle del Marqués de Villamagna, 4, Madrid",28010,4.0,1516.0,"lodging, point_of_interest, establishment",40.42923569999999,-3.688395499999999,Alojamiento
Hotel Gran Versalles,"Calle de Covarrubias, 4, Madrid",28010,4.2,2335.0,"lodging, point_of_interest, establishment",40.4284208,-3.6970266,Alojamiento
Hotel NH Madrid Chamberí,"Calle de Bretón de los Herreros, 29, Madrid",28010,4.3,814.0,"lodging, point_of_interest, establishment",40.439586,-3.69827,Alojamiento
Hotel Sardinero Madrid,"Plaza de Alonso Martínez, 3, Madrid",28010,4.6,863.0,"lodging, point_of_interest, establishment",40.4282198,-3.6960866,Alojamiento
Hotel Miguel Angel,"Calle de Miguel Ángel, 31, Madrid",28010,4.1,2004.0,"lodging, point_of_interest, establishment",40.4376228,-3.6914117,Alojamiento
Casa Almagro by The Pavilions Hotels & Resorts,"Calle de Amador de los Ríos, 3, Madrid",28010,4.6,412.0,"lodging, point_of_interest, establishment",40.4270812,-3.691410200000001,Alojamiento
Meliá Madrid Serrano,"Calle de Claudio Coello, 139, Madrid",28010,4.4,2744.0,"lodging, point_of_interest, establishment",40.435977,-3.685441,Alojamiento
Hotel One Shot Luchana 22,"Calle de Luchana, 22, Madrid",28010,4.0,808.0,"lodging, point_of_interest, establishment",40.43028249999999,-3.700095799999999,Alojamiento
Taste Me - Restaurante Chamberí con terraza - Carne a la brasa,"Calle de Santa Engracia, 53, Madrid",28010,4.2,991.0,"bar, restaurant, food, point_of_interest, establishment",40.43337409999999,-3.6983286,Restauración
Relais & Chateaux Hotel Orfila,"Calle de Orfila, 6, Madrid",28010,4.6,615.0,"lodging, point_of_interest, establishment",40.4272003,-3.6932807,Alojamiento
Hotel Suites Barrio De Salamanca,"Calle del General Oráa, 17, Madrid",28010,4.4,386.0,"lodging, point_of_interest, establishment",40.4363629,-3.6857229,Alojamiento
Apart-Hotel Serrano Recoletos,"Calle de Villanueva, 2, Madrid",28010,3.6,867.0,"lodging, point_of_interest, establishment",40.4227751,-3.6900327,Alojamiento
Bar Tomate,"Calle de Fernando el Santo, 26, Madrid",28010,4.2,3338.0,"bar, restaurant, food, point_of_interest, establishment",40.4279549,-3.6905347,Restauración
Hotel Serrano,"Calle del Marqués de Villamejor, 8, Madrid",28010,4.2,484.0,"lodging, point_of_interest, establishment",40.4310378,-3.6874355,Alojamiento
Sercotel Gran Hotel Conde Duque,"Plaza del Conde del Valle de Súchil, 5, Madrid",28010,4.3,2764.0,"lodging, point_of_interest, establishment",40.43076910000001,-3.7077407,Alojamiento
El Pedrusco de Aldealcorvo,"Calle de Juan de Austria, 27, Madrid",28010,4.6,791.0,"restaurant, food, point_of_interest, establishment",40.4339751,-3.700078,Restauración
Hotel Avani Alonso Martínez Madrid - Formerly NH Alonso Martínez,"Calle de Santa Engracia, 5, Madrid",28010,4.3,1367.0,"lodging, point_of_interest, establishment",40.42869899999999,-3.696126,Alojamiento
Hotel NH Madrid Lagasca,"Calle de Lagasca, 64, Madrid",28010,4.2,910.0,"lodging, point_of_interest, establishment",40.427538,-3.685109000000001,Alojamiento
Tribu Malasaña,"Calle de San Vicente Ferrer, 1, Madrid",28010,3.6,1486.0,"lodging, point_of_interest, establishment",40.42540109999999,-3.7012226,Alojamiento
VP Jardín de Recoletos,"Calle de Gil de Santivañes, 6, Madrid",28010,4.5,671.0,"parking, lodging, restaurant, food, point_of_interest, establishment",40.4223075,-3.689168100000001,Restauración
Urso Hotel & Spa,"Calle de Mejía Lequerica, 8, Madrid",28010,4.6,1204.0,"lodging, point_of_interest, establishment",40.4268551,-3.6982195,Alojamiento
La Fragua de Sebín,"Calle del Divino Pastor, 21, Madrid",28010,4.2,1603.0,"restaurant, food, point_of_interest, establishment",40.4275263,-3.703811299999999,Restauración
Barceló Emperatriz,"Calle de López de Hoyos, 4, Madrid",28010,4.6,1193.0,"lodging, point_of_interest, establishment",40.43636859999999,-3.688504699999999,Alojamiento
Hostal Chueca,"Calle de Hortaleza, 74, Madrid",28010,4.0,1436.0,"lodging, point_of_interest, establishment",40.42329829999999,-3.698821699999999,Alojamiento
Museo de Cera,"Plaza de Colón, 1, Madrid",28010,4.1,9924.0,"tourist_attraction, museum, point_of_interest, establishment",40.42507459999999,-3.691512899999999,Turismo / Atracción
ABC Serrano Commercial Center,"Calle de Serrano, 61, Madrid",28010,3.9,9837.0,"shopping_mall, shoe_store, clothing_store, point_of_interest, supermarket, grocery_or_supermarket, store, food, establishment",40.4321406,-3.6870326,Restauración
La Mordida,"Calle de Belén, 13, Madrid",28010,4.3,2570.0,"restaurant, point_of_interest, food, establishment",40.4244135,-3.6959487,Restauración
Ojalá,"Calle de San Andrés, 1, Madrid",28010,4.3,8769.0,"restaurant, point_of_interest, food, establishment",40.42552699999999,-3.7039978,Restauración
Biblioteca Nacional de España,"Paseo de Recoletos, 20-22, Madrid",28010,4.5,1607.0,"tourist_attraction, library, point_of_interest, establishment",40.4237879,-3.690245199999999,Turismo / Atracción
Museo del Romanticismo,"Calle de San Mateo, 13, Madrid",28010,4.5,8293.0,"tourist_attraction, museum, point_of_interest, establishment",40.4258946,-3.6987643,Turismo / Atracción
Pasteleria El Gato Persa,"Calle de Bárbara de Braganza, 10, Madrid",28010,3.8,659.0,"bakery, point_of_interest, store, food, establishment",40.423378,-3.692666,Restauración
Las Tortillas de Gabino,"Calle de Rafael Calvo, 20, Madrid",28010,4.5,2465.0,"restaurant, point_of_interest, food, establishment",40.4338707,-3.6938244,Restauración
La Vía Láctea,"Calle de Velarde, 18, Madrid",28010,4.2,3925.0,"bar, point_of_interest, establishment",40.4269012,-3.7029216,Restauración
Only YOU Boutique Hotel,"Calle del Barquillo, 21, Madrid",28010,4.6,2720.0,"lodging, point_of_interest, establishment",40.42225579999999,-3.6957491,Alojamiento
La Musa Malasaña,"Calle de Manuela Malasaña, 18, Madrid",28010,4.5,3965.0,"bar, restaurant, point_of_interest, food, establishment",40.42881359999999,-3.7043854,Restauración
Gimnasio Metropolitan,"Calle de José Abascal, 46, Madrid",28010,4.2,653.0,"gym, beauty_salon, point_of_interest, health, establishment",40.4380081,-3.693802,Comercio / Servicios
Hospital Universitario Vithas Madrid La Milagrosa,"Calle de Modesto Lafuente, 14, Madrid",28010,3.9,2266.0,"hospital, doctor, point_of_interest, health, establishment",40.4370011,-3.6956373,Comercio / Servicios
Clamores,"Calle de Alburquerque, 14, Madrid",28010,4.3,2912.0,"bar, night_club, point_of_interest, establishment",40.431118,-3.700957700000001,Restauración
HM Hospital Universitario Madrid,"Plaza del Conde del Valle de Súchil, 16, Madrid",28010,3.2,1061.0,"hospital, doctor, point_of_interest, health, establishment",40.43133589999999,-3.7067761,Comercio / Servicios
Areia Club,"Calle de Hortaleza, 92, Madrid",28010,4.4,4871.0,"bar, night_club, restaurant, point_of_interest, food, establishment",40.4245406,-3.6980344,Restauración
U HOSTELS ALBERGUES JUVENILES SL,"Calle de Sagasta, 22, Madrid",28010,4.1,347.0,"lodging, point_of_interest, establishment",40.42795,-3.69827,Alojamiento
Fortuny Home Club,"Calle de Fortuny, 34, Madrid",28010,3.9,4760.0,"restaurant, point_of_interest, food, establishment",40.43445529999999,-3.689987899999999,Restauración
Krachai - Thai Cuisine,"Calle de Fernando VI, 11, Madrid",28010,4.2,1495.0,"restaurant, point_of_interest, food, establishment",40.4254055,-3.696202500000001,Restauración
Amistad Cristiana Madrid,"Calle de Fuencarral, 136, Madrid",28010,4.7,90.0,"church, place_of_worship, point_of_interest, establishment",40.4315305,-3.702939799999999,Religión / Culto
Brunch by Café Oliver,"Calle de Caracas, 10, Madrid",28010,3.8,121.0,"restaurant, point_of_interest, food, establishment",40.4305827,-3.694306799999999,Restauración
Parque de Atracciones de Madrid,"Casa de Campo, s/n, Madrid",28011,4.1,37185.0,"amusement_park, tourist_attraction, point_of_interest, establishment",40.411883,-3.750058,Naturaleza / Recreación
Zoo Aquarium de Madrid,"Casa de Campo, S/N, Madrid",28011,4.2,37765.0,"zoo, aquarium, tourist_attraction, park, point_of_interest, establishment",40.4089556,-3.761228799999999,Naturaleza / Recreación
Casa de Campo,"Paseo de la Puerta del Ángel, 1, Madrid",28011,4.5,51778.0,"park, tourist_attraction, point_of_interest, establishment",40.4252589,-3.7526816,Naturaleza / Recreación
Multi-use Pavilion Madrid Arena,"Avenida de Portugal, s/n, Madrid",28011,4.1,2492.0,"stadium, point_of_interest, establishment",40.4130096,-3.7382091,Otros / No categorizado
BBVA,"Paseo de Extremadura, 145, Madrid",28011,2.0,68.0,"bank, atm, accounting, finance, point_of_interest, establishment",40.40977340000001,-3.738574700000001,Comercio / Servicios
Brinzal,"Camino del Robledal, 2, Madrid",28011,4.6,238.0,"point_of_interest, establishment",40.41531719999999,-3.745409800000001,Otros / No categorizado
La Escuela Boxeo Kickboxing JERO GARCÍA,"Calle Hilario Sangrador, 8, Madrid",28011,4.6,115.0,"gym, school, health, point_of_interest, establishment",40.4079781,-3.742480499999999,Comercio / Servicios
Edward Olive,"Calle de las Higueras, 16, Madrid",28011,4.9,254.0,"store, point_of_interest, establishment",40.40629939999999,-3.7452307,Comercio / Servicios
Cooperative Education José Ramón Otero Soc. Coop. Mad.,"Calle de Francisco Brizuela, 3, Madrid",28011,4.3,86.0,"point_of_interest, establishment",40.40941469999999,-3.7386887,Otros / No categorizado
CLÍNICA DEL PIE Martín Gutiérrez,"Avenida de Portugal, 157, Madrid",28011,4.8,60.0,"doctor, health, point_of_interest, establishment",40.4105847,-3.738708800000001,Comercio / Servicios
El Templo del Placer Madrid,"Calle Principal de Provincias, 8, Madrid",28011,4.6,471.0,"restaurant, night_club, food, point_of_interest, establishment",40.41439140000001,-3.7326358,Restauración
Parque Teleferico Madrid,"Camino del Robledal, 2, Madrid",28011,4.4,96.0,"park, point_of_interest, establishment",40.4198059,-3.7478212,Naturaleza / Recreación
Fuente de las Siete Hermanas,"Camino del Robledal, 2, Madrid",28011,4.2,24.0,"tourist_attraction, point_of_interest, establishment",40.41573959999999,-3.7463879,Turismo / Atracción
La Máquina,"Carretera del Parque de Atracciones, 3, Madrid",28011,3.1,58.0,"amusement_park, point_of_interest, establishment",40.41292859999999,-3.7499503,Naturaleza / Recreación
Puente de la Agachadiza,Madrid,28011,4.7,3.0,"point_of_interest, establishment",40.41670049999999,-3.7435297,Otros / No categorizado
Top Spin,"Paseo de la Venta, 66, Madrid",28011,3.6,30.0,"amusement_park, point_of_interest, establishment",40.4127322,-3.7502482,Naturaleza / Recreación
Los Rápidos,"Carretera del Parque de Atracciones, s/n, Madrid",28011,3.8,46.0,"amusement_park, point_of_interest, establishment",40.4123916,-3.7509222,Naturaleza / Recreación
Circus School Carampa,"Camino del Robledal, 2, s/n, Madrid",28011,4.8,50.0,"point_of_interest, establishment",40.4153177,-3.744294,Otros / No categorizado
Cine 4D,"Paseo de la Venta, 66, Madrid",28011,3.5,11.0,"movie_theater, point_of_interest, establishment",40.4121962,-3.7512087,Otros / No categorizado
Rotor,Madrid,28011,4.2,25.0,"amusement_park, point_of_interest, establishment",40.412745,-3.747899,Naturaleza / Recreación
Buffet Libre Gran Avenida,"Casa de Campo, S/N, Madrid",28011,2.1,46.0,"restaurant, food, point_of_interest, establishment",40.4117518,-3.750442399999999,Restauración
Tifón,"Parque de Atracciones Madrid, Casa de Campo, s/n, Madrid",28011,4.4,78.0,"amusement_park, point_of_interest, establishment",40.4123653,-3.7481624,Naturaleza / Recreación
